$GPGGA,131001.000,3114.1412,N,12128.5224,E,1,00,-0003.057,M 
$GPGGA,131002.000,3114.1413,N,12128.5245,E,1,00,-0006.920,M 
$GPGGA,131003.000,3114.1415,N,12128.5264,E,1,00,-0007.506,M 
$GPGGA,131004.000,3114.1408,N,12128.5297,E,1,00,-0009.627,M 
$GPGGA,131005.000,3114.1430,N,12128.5306,E,1,00,-0007.525,M 
$GPGGA,131006.000,3114.1414,N,12128.5340,E,1,00,-0008.747,M 
$GPGGA,131007.000,3114.1437,N,12128.5360,E,1,00,-0010.481,M 
$GPGGA,131008.000,3114.1440,N,12128.5387,E,1,00,-0009.797,M 
$GPGGA,131009.000,3114.1426,N,12128.5421,E,1,00,-0010.515,M 
$GPGGA,131010.000,3114.1474,N,12128.5421,E,1,00,-0007.807,M 
$GPGGA,131011.000,3114.1606,N,12128.5377,E,1,00,00003.340,M 
$GPGGA,131012.000,3114.1695,N,12128.5362,E,1,00,00012.751,M 
$GPGGA,131013.000,3114.1706,N,12128.5388,E,1,00,00015.239,M 
$GPGGA,131014.000,3114.1692,N,12128.5433,E,1,00,00019.066,M 
$GPGGA,131015.000,3114.1718,N,12128.5441,E,1,00,00017.687,M 
$GPGGA,131016.000,3114.1724,N,12128.5465,E,1,00,00017.661,M 
$GPGGA,131017.000,3114.1729,N,12128.5492,E,1,00,00017.677,M 
$GPGGA,131018.000,3114.1744,N,12128.5523,E,1,00,00016.494,M 
$GPGGA,131019.000,3114.1718,N,12128.5510,E,1,00,00025.497,M 
$GPGGA,131020.000,3114.1739,N,12128.5539,E,1,00,00027.486,M 
$GPGGA,131021.000,3114.1749,N,12128.5558,E,1,00,00029.938,M 
$GPGGA,131022.000,3114.1759,N,12128.5568,E,1,00,00033.588,M 
$GPGGA,131023.000,3114.1770,N,12128.5584,E,1,00,00034.915,M 
$GPGGA,131024.000,3114.1783,N,12128.5626,E,1,00,00030.604,M 
$GPGGA,131025.000,3114.1663,N,12128.5676,E,1,00,00026.054,M 
$GPGGA,131026.000,3114.1628,N,12128.5699,E,1,00,00030.113,M 
$GPGGA,131027.000,3114.1572,N,12128.5682,E,1,00,00049.037,M 
$GPGGA,131028.000,3114.1550,N,12128.5726,E,1,00,00065.071,M 
$GPGGA,131029.000,3114.1596,N,12128.5770,E,1,00,00054.314,M 
$GPGGA,131030.000,3114.1609,N,12128.5821,E,1,00,00039.804,M 
$GPGGA,131031.000,3114.1628,N,12128.5852,E,1,00,00032.415,M 
$GPGGA,131032.000,3114.1627,N,12128.5904,E,1,00,00023.173,M 
$GPGGA,131033.000,3114.1666,N,12128.5922,E,1,00,00021.564,M 
$GPGGA,131034.000,3114.1705,N,12128.5937,E,1,00,00021.593,M 
$GPGGA,131035.000,3114.1804,N,12128.5919,E,1,00,00027.044,M 
$GPGGA,131036.000,3114.1873,N,12128.5916,E,1,00,00032.729,M 
$GPGGA,131037.000,3114.1871,N,12128.5953,E,1,00,00036.489,M 
$GPGGA,131038.000,3114.1892,N,12128.5975,E,1,00,00032.070,M 
$GPGGA,131039.000,3114.1907,N,12128.5979,E,1,00,00035.896,M 
$GPGGA,131040.000,3114.1910,N,12128.5995,E,1,00,00037.840,M 
$GPGGA,131041.000,3114.1941,N,12128.6032,E,1,00,00032.818,M 
$GPGGA,131042.000,3114.1940,N,12128.6026,E,1,00,00039.961,M 
$GPGGA,131043.000,3114.1957,N,12128.6063,E,1,00,00039.546,M 
$GPGGA,131044.000,3114.1978,N,12128.6091,E,1,00,00039.263,M 
$GPGGA,131045.000,3114.1983,N,12128.6118,E,1,00,00040.212,M 
$GPGGA,131046.000,3114.1956,N,12128.6181,E,1,00,00032.732,M 
$GPGGA,131047.000,3114.1958,N,12128.6216,E,1,00,00028.076,M 
$GPGGA,131048.000,3114.1982,N,12128.6239,E,1,00,00025.197,M 
$GPGGA,131049.000,3114.2032,N,12128.6252,E,0,00,00024.878,M 
$GPGGA,131050.000,3114.2029,N,12128.6272,E,1,00,00022.423,M 
$GPGGA,131051.000,3114.2070,N,12128.6296,E,1,00,00022.518,M 
$GPGGA,131052.000,3114.2004,N,12128.6361,E,1,00,00016.994,M 
$GPGGA,131053.000,3114.2004,N,12128.6361,E,0,00,00016.994,M 
$GPGGA,131054.000,3114.1914,N,12128.6457,E,0,00,00004.766,M 
$GPGGA,131055.000,3114.1914,N,12128.6457,E,0,00,00004.766,M 
$GPGGA,131056.000,3114.1914,N,12128.6457,E,0,00,00004.766,M 
$GPGGA,131057.000,3114.1914,N,12128.6457,E,0,00,00004.766,M 
$GPGGA,131058.000,3114.1951,N,12128.6511,E,0,00,-0010.535,M 
$GPGGA,131059.000,3114.2019,N,12128.6528,E,0,00,-0018.254,M 
$GPGGA,131100.000,3114.2029,N,12128.6507,E,0,00,-0025.190,M 
$GPGGA,131101.000,3114.2049,N,12128.6587,E,1,00,-0020.745,M 
$GPGGA,131102.000,3114.2129,N,12128.6595,E,1,00,-0002.258,M 
$GPGGA,131103.000,3114.2121,N,12128.6627,E,1,00,00002.573,M 
$GPGGA,131104.000,3114.2129,N,12128.6663,E,0,00,00006.518,M 
$GPGGA,131105.000,3114.2149,N,12128.6671,E,1,00,00003.438,M 
$GPGGA,131106.000,3114.2088,N,12128.6726,E,1,00,00004.337,M 
$GPGGA,131107.000,3114.2088,N,12128.6745,E,1,00,00005.846,M 
$GPGGA,131108.000,3114.2062,N,12128.6789,E,1,00,00005.555,M 
$GPGGA,131109.000,3114.2075,N,12128.6806,E,1,00,00006.129,M 
$GPGGA,131110.000,3114.2076,N,12128.6842,E,1,00,00004.997,M 
$GPGGA,131111.000,3114.2082,N,12128.6867,E,1,00,00004.972,M 
$GPGGA,131112.000,3114.2155,N,12128.6865,E,1,00,00007.254,M 
$GPGGA,131113.000,3114.2219,N,12128.6868,E,1,00,00011.284,M 
$GPGGA,131114.000,3114.2226,N,12128.6884,E,1,00,00013.469,M 
$GPGGA,131115.000,3114.2198,N,12128.6917,E,1,00,00013.603,M 
$GPGGA,131116.000,3114.2205,N,12128.6942,E,1,00,00012.681,M 
$GPGGA,131117.000,3114.2199,N,12128.6978,E,0,00,00010.190,M 
$GPGGA,131118.000,3114.2214,N,12128.6992,E,0,00,00008.399,M 
$GPGGA,131119.000,3114.2218,N,12128.7009,E,0,00,00003.233,M 
$GPGGA,131120.000,3114.2200,N,12128.7039,E,1,00,-0002.631,M 
$GPGGA,131121.000,3114.2099,N,12128.7106,E,1,00,-0006.323,M 
$GPGGA,131122.000,3114.2020,N,12128.7154,E,1,00,-0011.763,M 
$GPGGA,131123.000,3114.2022,N,12128.7156,E,1,00,-0011.547,M 
$GPGGA,131124.000,3114.2006,N,12128.7172,E,0,00,-0013.606,M 
$GPGGA,131125.000,3114.1991,N,12128.7178,E,1,00,-0016.925,M 
$GPGGA,131126.000,3114.1998,N,12128.7185,E,0,00,-0017.427,M 
$GPGGA,131127.000,3114.1948,N,12128.7194,E,0,00,-0022.143,M 
$GPGGA,131128.000,3114.1919,N,12128.7207,E,1,00,-0027.318,M 
$GPGGA,131129.000,3114.1929,N,12128.7228,E,1,00,-0028.605,M 
$GPGGA,131130.000,3114.1960,N,12128.7211,E,1,00,-0023.575,M 
$GPGGA,131131.000,3114.1968,N,12128.7216,E,1,00,-0019.675,M 
$GPGGA,131132.000,3114.2024,N,12128.7214,E,1,00,-0014.340,M 
$GPGGA,131133.000,3114.2099,N,12128.7210,E,1,00,-0010.104,M 
$GPGGA,131134.000,3114.2183,N,12128.7177,E,1,00,00003.463,M 
$GPGGA,131135.000,3114.2271,N,12128.7162,E,1,00,00014.900,M 
$GPGGA,131136.000,3114.2322,N,12128.7151,E,1,00,00024.492,M 
$GPGGA,131137.000,3114.2350,N,12128.7182,E,1,00,00024.722,M 
$GPGGA,131138.000,3114.2359,N,12128.7213,E,1,00,00021.140,M 
$GPGGA,131139.000,3114.2370,N,12128.7221,E,1,00,00022.038,M 
$GPGGA,131140.000,3114.2374,N,12128.7253,E,1,00,00020.086,M 
$GPGGA,131141.000,3114.2381,N,12128.7276,E,1,00,00017.619,M 
$GPGGA,131142.000,3114.2389,N,12128.7301,E,1,00,00015.810,M 
$GPGGA,131143.000,3114.2400,N,12128.7328,E,1,00,00013.880,M 
$GPGGA,131144.000,3114.2395,N,12128.7359,E,1,00,00011.944,M 
$GPGGA,131145.000,3114.2394,N,12128.7386,E,1,00,00010.330,M 
$GPGGA,131146.000,3114.2403,N,12128.7410,E,1,00,00010.360,M 
$GPGGA,131147.000,3114.2365,N,12128.7443,E,1,00,00009.123,M 
$GPGGA,131148.000,3114.2359,N,12128.7481,E,1,00,00006.230,M 
$GPGGA,131149.000,3114.2308,N,12128.7522,E,1,00,00002.275,M 
$GPGGA,131150.000,3114.2310,N,12128.7558,E,1,00,-0001.547,M 
$GPGGA,131151.000,3114.2391,N,12128.7549,E,1,00,00003.771,M 
$GPGGA,131152.000,3114.2439,N,12128.7558,E,1,00,00012.787,M 
$GPGGA,131153.000,3114.2373,N,12128.7615,E,1,00,00011.307,M 
$GPGGA,131154.000,3114.2245,N,12128.7693,E,1,00,00001.262,M 
$GPGGA,131155.000,3114.2227,N,12128.7728,E,1,00,-0002.282,M 
$GPGGA,131156.000,3114.2228,N,12128.7756,E,1,00,-0004.881,M 
$GPGGA,131157.000,3114.2245,N,12128.7779,E,1,00,-0006.666,M 
$GPGGA,131158.000,3114.2281,N,12128.7799,E,1,00,-0007.208,M 
$GPGGA,131159.000,3114.2307,N,12128.7824,E,1,00,-0008.869,M 
$GPGGA,131200.000,3114.2314,N,12128.7843,E,1,00,-0008.165,M 
$GPGGA,131201.000,3114.2281,N,12128.7869,E,1,00,-0003.072,M 
$GPGGA,131202.000,3114.2295,N,12128.7885,E,1,00,00001.042,M 
$GPGGA,131203.000,3114.2321,N,12128.7906,E,1,00,00002.580,M 
$GPGGA,131204.000,3114.2266,N,12128.7913,E,1,00,00010.006,M 
$GPGGA,131205.000,3114.2322,N,12128.7943,E,1,00,00007.421,M 
$GPGGA,131206.000,3114.2396,N,12128.7933,E,1,00,00015.427,M 
$GPGGA,131207.000,3114.2386,N,12128.7941,E,1,00,00021.966,M 
$GPGGA,131208.000,3114.2415,N,12128.7880,E,1,00,00050.541,M 
$GPGGA,131209.000,3114.2412,N,12128.7898,E,1,00,00058.750,M 
$GPGGA,131210.000,3114.2458,N,12128.7890,E,1,00,00064.857,M 
$GPGGA,131211.000,3114.2508,N,12128.7896,E,1,00,00061.793,M 
$GPGGA,131212.000,3114.2589,N,12128.7921,E,1,00,00050.270,M 
$GPGGA,131213.000,3114.2606,N,12128.7931,E,1,00,00040.262,M 
$GPGGA,131214.000,3114.2588,N,12128.7963,E,1,00,00037.682,M 
$GPGGA,131215.000,3114.2568,N,12128.7999,E,1,00,00034.111,M 
$GPGGA,131216.000,3114.2603,N,12128.8009,E,1,00,00030.366,M 
$GPGGA,131217.000,3114.2455,N,12128.8005,E,1,00,00040.668,M 
$GPGGA,131218.000,3114.2516,N,12128.8103,E,1,00,00027.734,M 
$GPGGA,131219.000,3114.2552,N,12128.8136,E,1,00,00019.375,M 
$GPGGA,131220.000,3114.2534,N,12128.8177,E,1,00,00009.042,M 
$GPGGA,131221.000,3114.2560,N,12128.8210,E,0,00,00005.739,M 
$GPGGA,131222.000,3114.2530,N,12128.8243,E,1,00,00001.869,M 
$GPGGA,131223.000,3114.2569,N,12128.8278,E,1,00,00003.638,M 
$GPGGA,131224.000,3114.2599,N,12128.8299,E,1,00,00006.859,M 
$GPGGA,131225.000,3114.2650,N,12128.8316,E,1,00,00011.214,M 
$GPGGA,131226.000,3114.2655,N,12128.8348,E,1,00,00013.207,M 
$GPGGA,131227.000,3114.2677,N,12128.8381,E,1,00,00014.674,M 
$GPGGA,131228.000,3114.2694,N,12128.8412,E,1,00,00015.477,M 
$GPGGA,131229.000,3114.2697,N,12128.8447,E,1,00,00015.881,M 
$GPGGA,131230.000,3114.2709,N,12128.8480,E,1,00,00016.431,M 
$GPGGA,131231.000,3114.2712,N,12128.8515,E,1,00,00016.392,M 
$GPGGA,131232.000,3114.2727,N,12128.8543,E,1,00,00017.169,M 
$GPGGA,131233.000,3114.2735,N,12128.8569,E,1,00,00017.407,M 
$GPGGA,131234.000,3114.2723,N,12128.8603,E,1,00,00016.119,M 
$GPGGA,131235.000,3114.2733,N,12128.8630,E,1,00,00016.473,M 
$GPGGA,131236.000,3114.2746,N,12128.8661,E,1,00,00015.607,M 
$GPGGA,131237.000,3114.2759,N,12128.8686,E,1,00,00016.492,M 
$GPGGA,131238.000,3114.2764,N,12128.8719,E,1,00,00016.779,M 
$GPGGA,131239.000,3114.2760,N,12128.8756,E,1,00,00016.800,M 
$GPGGA,131240.000,3114.2760,N,12128.8790,E,1,00,00016.823,M 
$GPGGA,131241.000,3114.2767,N,12128.8818,E,1,00,00017.759,M 
$GPGGA,131242.000,3114.2786,N,12128.8847,E,1,00,00018.308,M 
$GPGGA,131243.000,3114.2797,N,12128.8880,E,1,00,00017.062,M 
$GPGGA,131244.000,3114.2793,N,12128.8924,E,1,00,00017.543,M 
$GPGGA,131245.000,3114.2805,N,12128.8948,E,1,00,00016.745,M 
$GPGGA,131246.000,3114.2811,N,12128.8980,E,1,00,00016.279,M 
$GPGGA,131247.000,3114.2814,N,12128.9012,E,1,00,00015.831,M 
$GPGGA,131248.000,3114.2825,N,12128.9038,E,1,00,00015.376,M 
$GPGGA,131249.000,3114.2834,N,12128.9068,E,1,00,00015.438,M 
$GPGGA,131250.000,3114.2835,N,12128.9104,E,1,00,00015.482,M 
$GPGGA,131251.000,3114.2846,N,12128.9127,E,1,00,00015.325,M 
$GPGGA,131252.000,3114.2854,N,12128.9154,E,1,00,00015.810,M 
$GPGGA,131253.000,3114.2861,N,12128.9179,E,1,00,00016.152,M 
$GPGGA,131254.000,3114.2865,N,12128.9204,E,1,00,00016.480,M 
$GPGGA,131255.000,3114.2871,N,12128.9225,E,1,00,00016.374,M 
$GPGGA,131256.000,3114.2876,N,12128.9246,E,1,00,00016.338,M 
$GPGGA,131257.000,3114.2879,N,12128.9264,E,1,00,00016.188,M 
$GPGGA,131258.000,3114.2884,N,12128.9280,E,1,00,00015.578,M 
$GPGGA,131259.000,3114.2886,N,12128.9297,E,1,00,00015.175,M 
$GPGGA,131300.000,3114.2891,N,12128.9310,E,1,00,00015.018,M 
$GPGGA,131301.000,3114.2897,N,12128.9322,E,1,00,00015.065,M 
$GPGGA,131302.000,3114.2899,N,12128.9335,E,1,00,00015.480,M 
$GPGGA,131303.000,3114.2898,N,12128.9347,E,1,00,00015.412,M 
$GPGGA,131304.000,3114.2900,N,12128.9357,E,1,00,00015.543,M 
$GPGGA,131305.000,3114.2903,N,12128.9363,E,1,00,00016.635,M 
$GPGGA,131306.000,3114.2905,N,12128.9368,E,1,00,00017.085,M 
$GPGGA,131307.000,3114.2904,N,12128.9375,E,1,00,00016.985,M 
$GPGGA,131308.000,3114.2907,N,12128.9369,E,1,00,00019.944,M 
$GPGGA,131309.000,3114.2902,N,12128.9378,E,1,00,00018.663,M 
$GPGGA,131310.000,3114.2896,N,12128.9370,E,1,00,00020.245,M 
$GPGGA,131311.000,3114.2894,N,12128.9370,E,1,00,00021.419,M 
$GPGGA,131312.000,3114.2896,N,12128.9368,E,1,00,00021.197,M 
$GPGGA,131313.000,3114.2897,N,12128.9375,E,1,00,00018.836,M 
$GPGGA,131314.000,3114.2898,N,12128.9378,E,1,00,00017.483,M 
$GPGGA,131315.000,3114.2899,N,12128.9378,E,1,00,00017.044,M 
$GPGGA,131316.000,3114.2900,N,12128.9379,E,1,00,00016.712,M 
$GPGGA,131317.000,3114.2903,N,12128.9379,E,1,00,00016.700,M 
$GPGGA,131318.000,3114.2905,N,12128.9379,E,1,00,00016.836,M 
$GPGGA,131319.000,3114.2908,N,12128.9376,E,1,00,00017.520,M 
$GPGGA,131320.000,3114.2910,N,12128.9371,E,1,00,00019.540,M 
$GPGGA,131321.000,3114.2915,N,12128.9366,E,1,00,00021.660,M 
$GPGGA,131322.000,3114.2917,N,12128.9364,E,1,00,00022.450,M 
$GPGGA,131323.000,3114.2916,N,12128.9365,E,1,00,00022.721,M 
$GPGGA,131324.000,3114.2916,N,12128.9366,E,1,00,00021.761,M 
$GPGGA,131325.000,3114.2915,N,12128.9367,E,1,00,00020.542,M 
$GPGGA,131326.000,3114.2914,N,12128.9369,E,1,00,00019.200,M 
$GPGGA,131327.000,3114.2913,N,12128.9371,E,1,00,00018.143,M 
$GPGGA,131328.000,3114.2912,N,12128.9371,E,1,00,00017.548,M 
$GPGGA,131329.000,3114.2910,N,12128.9370,E,1,00,00018.230,M 
$GPGGA,131330.000,3114.2910,N,12128.9367,E,1,00,00019.841,M 
$GPGGA,131331.000,3114.2907,N,12128.9366,E,1,00,00021.182,M 
$GPGGA,131332.000,3114.2906,N,12128.9368,E,1,00,00021.536,M 
$GPGGA,131333.000,3114.2905,N,12128.9371,E,1,00,00020.744,M 
$GPGGA,131334.000,3114.2905,N,12128.9376,E,1,00,00018.915,M 
$GPGGA,131335.000,3114.2902,N,12128.9379,E,1,00,00016.918,M 
$GPGGA,131336.000,3114.2898,N,12128.9381,E,1,00,00015.071,M 
$GPGGA,131337.000,3114.2894,N,12128.9381,E,1,00,00013.893,M 
$GPGGA,131338.000,3114.2890,N,12128.9379,E,1,00,00013.647,M 
$GPGGA,131339.000,3114.2886,N,12128.9376,E,1,00,00013.986,M 
$GPGGA,131340.000,3114.2884,N,12128.9376,E,1,00,00013.607,M 
$GPGGA,131341.000,3114.2883,N,12128.9377,E,1,00,00012.947,M 
$GPGGA,131342.000,3114.2883,N,12128.9381,E,1,00,00011.960,M 
$GPGGA,131343.000,3114.2885,N,12128.9385,E,1,00,00011.128,M 
$GPGGA,131344.000,3114.2886,N,12128.9386,E,1,00,00010.863,M 
$GPGGA,131345.000,3114.2888,N,12128.9381,E,1,00,00012.155,M 
$GPGGA,131346.000,3114.2891,N,12128.9378,E,1,00,00014.089,M 
$GPGGA,131347.000,3114.2894,N,12128.9372,E,1,00,00017.602,M 
$GPGGA,131348.000,3114.2898,N,12128.9363,E,1,00,00022.029,M 
$GPGGA,131349.000,3114.2900,N,12128.9363,E,1,00,00023.633,M 
$GPGGA,131350.000,3114.2900,N,12128.9365,E,1,00,00024.081,M 
$GPGGA,131351.000,3114.2898,N,12128.9373,E,1,00,00021.466,M 
$GPGGA,131352.000,3114.2897,N,12128.9377,E,1,00,00019.082,M 
$GPGGA,131353.000,3114.2897,N,12128.9380,E,1,00,00017.399,M 
$GPGGA,131354.000,3114.2897,N,12128.9379,E,1,00,00016.826,M 
$GPGGA,131355.000,3114.2899,N,12128.9377,E,1,00,00017.542,M 
$GPGGA,131356.000,3114.2903,N,12128.9373,E,1,00,00019.699,M 
$GPGGA,131357.000,3114.2905,N,12128.9365,E,1,00,00023.777,M 
$GPGGA,131358.000,3114.2909,N,12128.9361,E,1,00,00026.999,M 
$GPGGA,131359.000,3114.2914,N,12128.9355,E,1,00,00031.143,M 
$GPGGA,131400.000,3114.2913,N,12128.9369,E,1,00,00028.141,M 
$GPGGA,131401.000,3114.2911,N,12128.9371,E,1,00,00026.337,M 
$GPGGA,131402.000,3114.2908,N,12128.9372,E,1,00,00025.190,M 
$GPGGA,131403.000,3114.2906,N,12128.9373,E,1,00,00023.880,M 
$GPGGA,131404.000,3114.2904,N,12128.9372,E,1,00,00022.875,M 
$GPGGA,131405.000,3114.2902,N,12128.9371,E,1,00,00021.489,M 
$GPGGA,131406.000,3114.2907,N,12128.9331,E,1,00,00035.925,M 
$GPGGA,131407.000,3114.2908,N,12128.9375,E,1,00,00027.979,M 
$GPGGA,131408.000,3114.2906,N,12128.9380,E,1,00,00023.374,M 
$GPGGA,131409.000,3114.2900,N,12128.9383,E,1,00,00021.192,M 
$GPGGA,131410.000,3114.2903,N,12128.9376,E,1,00,00024.229,M 
$GPGGA,131411.000,3114.2910,N,12128.9370,E,1,00,00028.998,M 
$GPGGA,131412.000,3114.2921,N,12128.9389,E,1,00,00024.042,M 
$GPGGA,131413.000,3114.2922,N,12128.9403,E,1,00,00020.997,M 
$GPGGA,131414.000,3114.2901,N,12128.9408,E,1,00,00030.426,M 
$GPGGA,131415.000,3114.2916,N,12128.9435,E,1,00,00025.597,M 
$GPGGA,131416.000,3114.2923,N,12128.9456,E,1,00,00022.198,M 
$GPGGA,131417.000,3114.2926,N,12128.9473,E,1,00,00021.460,M 
$GPGGA,131418.000,3114.2937,N,12128.9491,E,1,00,00019.447,M 
$GPGGA,131419.000,3114.2938,N,12128.9516,E,1,00,00018.855,M 
$GPGGA,131420.000,3114.2942,N,12128.9538,E,1,00,00018.660,M 
$GPGGA,131421.000,3114.2948,N,12128.9565,E,1,00,00018.087,M 
$GPGGA,131422.000,3114.2953,N,12128.9592,E,1,00,00017.543,M 
$GPGGA,131423.000,3114.2961,N,12128.9623,E,1,00,00016.507,M 
$GPGGA,131424.000,3114.2951,N,12128.9646,E,1,00,00018.947,M 
$GPGGA,131425.000,3114.2936,N,12128.9691,E,1,00,00019.005,M 
$GPGGA,131426.000,3114.2945,N,12128.9727,E,1,00,00015.755,M 
$GPGGA,131427.000,3114.2946,N,12128.9751,E,1,00,00017.436,M 
$GPGGA,131428.000,3114.2931,N,12128.9806,E,1,00,00012.499,M 
$GPGGA,131429.000,3114.2865,N,12128.9882,E,1,00,00005.730,M 
$GPGGA,131430.000,3114.2860,N,12128.9913,E,1,00,00003.522,M 
$GPGGA,131431.000,3114.2877,N,12128.9941,E,1,00,00003.292,M 
$GPGGA,131432.000,3114.2983,N,12128.9927,E,1,00,00011.871,M 
$GPGGA,131433.000,3114.2955,N,12128.9981,E,1,00,00011.196,M 
$GPGGA,131434.000,3114.2952,N,12129.0020,E,1,00,00012.556,M 
$GPGGA,131435.000,3114.2944,N,12129.0062,E,1,00,00009.618,M 
$GPGGA,131436.000,3114.2992,N,12129.0066,E,1,00,00019.621,M 
$GPGGA,131437.000,3114.3042,N,12129.0071,E,1,00,00024.409,M 
$GPGGA,131438.000,3114.3005,N,12129.0107,E,1,00,00018.732,M 
$GPGGA,131439.000,3114.3002,N,12129.0143,E,1,00,00016.852,M 
$GPGGA,131440.000,3114.2947,N,12129.0204,E,1,00,00009.196,M 
$GPGGA,131441.000,3114.2910,N,12129.0233,E,1,00,00006.509,M 
$GPGGA,131442.000,3114.2939,N,12129.0257,E,1,00,00004.264,M 
$GPGGA,131443.000,3114.2941,N,12129.0271,E,1,00,00003.065,M 
$GPGGA,131444.000,3114.2927,N,12129.0305,E,1,00,00002.651,M 
$GPGGA,131445.000,3114.2964,N,12129.0297,E,1,00,00008.031,M 
$GPGGA,131446.000,3114.2987,N,12129.0332,E,1,00,00005.053,M 
$GPGGA,131447.000,3114.2983,N,12129.0361,E,1,00,00000.025,M 
$GPGGA,131448.000,3114.2980,N,12129.0371,E,1,00,00002.813,M 
$GPGGA,131449.000,3114.2959,N,12129.0389,E,1,00,00005.560,M 
$GPGGA,131450.000,3114.2934,N,12129.0411,E,1,00,00006.352,M 
$GPGGA,131451.000,3114.2956,N,12129.0437,E,1,00,00004.261,M 
$GPGGA,131452.000,3114.2959,N,12129.0465,E,1,00,00001.504,M 
$GPGGA,131453.000,3114.3015,N,12129.0454,E,1,00,00008.562,M 
$GPGGA,131454.000,3114.3112,N,12129.0444,E,1,00,00014.213,M 
$GPGGA,131455.000,3114.3138,N,12129.0458,E,1,00,00016.083,M 
$GPGGA,131456.000,3114.3151,N,12129.0468,E,1,00,00019.764,M 
$GPGGA,131457.000,3114.3113,N,12129.0511,E,1,00,00017.776,M 
$GPGGA,131458.000,3114.3099,N,12129.0553,E,1,00,00013.205,M 
$GPGGA,131459.000,3114.3107,N,12129.0570,E,1,00,00012.169,M 
$GPGGA,131500.000,3114.3122,N,12129.0591,E,1,00,00012.466,M 
$GPGGA,131501.000,3114.3126,N,12129.0618,E,1,00,00011.664,M 
$GPGGA,131502.000,3114.3076,N,12129.0625,E,1,00,00016.972,M 
$GPGGA,131503.000,3114.3106,N,12129.0670,E,1,00,00013.860,M 
$GPGGA,131504.000,3114.3101,N,12129.0703,E,1,00,00009.887,M 
$GPGGA,131505.000,3114.3115,N,12129.0718,E,1,00,00007.174,M 
$GPGGA,131506.000,3114.3114,N,12129.0740,E,1,00,00007.402,M 
$GPGGA,131507.000,3114.3126,N,12129.0751,E,1,00,00009.408,M 
$GPGGA,131508.000,3114.3135,N,12129.0769,E,1,00,00008.893,M 
$GPGGA,131509.000,3114.3134,N,12129.0794,E,1,00,00007.448,M 
$GPGGA,131510.000,3114.3134,N,12129.0809,E,1,00,00005.968,M 
$GPGGA,131511.000,3114.3137,N,12129.0820,E,1,00,00006.294,M 
$GPGGA,131512.000,3114.3140,N,12129.0832,E,1,00,00006.765,M 
$GPGGA,131513.000,3114.3152,N,12129.0836,E,1,00,00007.843,M 
$GPGGA,131514.000,3114.3144,N,12129.0848,E,1,00,00008.188,M 
$GPGGA,131515.000,3114.3148,N,12129.0863,E,1,00,00007.301,M 
$GPGGA,131516.000,3114.3134,N,12129.0881,E,1,00,00005.931,M 
$GPGGA,131517.000,3114.3136,N,12129.0874,E,1,00,00009.865,M 
$GPGGA,131518.000,3114.3151,N,12129.0876,E,1,00,00011.609,M 
$GPGGA,131519.000,3114.3175,N,12129.0875,E,1,00,00013.230,M 
$GPGGA,131520.000,3114.3170,N,12129.0889,E,1,00,00013.466,M 
$GPGGA,131521.000,3114.3158,N,12129.0906,E,1,00,00013.388,M 
$GPGGA,131522.000,3114.3169,N,12129.0915,E,1,00,00011.892,M 
$GPGGA,131523.000,3114.3174,N,12129.0922,E,1,00,00011.676,M 
$GPGGA,131524.000,3114.3195,N,12129.0919,E,1,00,00013.400,M 
$GPGGA,131525.000,3114.3181,N,12129.0947,E,1,00,00012.260,M 
$GPGGA,131526.000,3114.3197,N,12129.0947,E,1,00,00013.057,M 
$GPGGA,131527.000,3114.3221,N,12129.0945,E,1,00,00017.996,M 
$GPGGA,131528.000,3114.3238,N,12129.0947,E,1,00,00020.747,M 
$GPGGA,131529.000,3114.3249,N,12129.0960,E,1,00,00022.388,M 
$GPGGA,131530.000,3114.3230,N,12129.0984,E,1,00,00020.251,M 
$GPGGA,131531.000,3114.3218,N,12129.0999,E,1,00,00018.083,M 
$GPGGA,131532.000,3114.3246,N,12129.1002,E,1,00,00018.545,M 
$GPGGA,131533.000,3114.3244,N,12129.1023,E,1,00,00019.670,M 
$GPGGA,131534.000,3114.3279,N,12129.1011,E,1,00,00025.161,M 
$GPGGA,131535.000,3114.3274,N,12129.1031,E,1,00,00024.093,M 
$GPGGA,131536.000,3114.3244,N,12129.1060,E,1,00,00020.768,M 
$GPGGA,131537.000,3114.3204,N,12129.1059,E,1,00,00024.296,M 
$GPGGA,131538.000,3114.3211,N,12129.1094,E,1,00,00019.553,M 
$GPGGA,131539.000,3114.3226,N,12129.1104,E,1,00,00017.999,M 
$GPGGA,131540.000,3114.3214,N,12129.1125,E,1,00,00014.746,M 
$GPGGA,131541.000,3114.3222,N,12129.1132,E,1,00,00014.032,M 
$GPGGA,131542.000,3114.3221,N,12129.1145,E,1,00,00012.508,M 
$GPGGA,131543.000,3114.3200,N,12129.1178,E,1,00,00007.491,M 
$GPGGA,131544.000,3114.3205,N,12129.1184,E,1,00,00006.677,M 
$GPGGA,131545.000,3114.3204,N,12129.1197,E,1,00,00006.727,M 
$GPGGA,131546.000,3114.3203,N,12129.1221,E,1,00,00004.107,M 
$GPGGA,131547.000,3114.3230,N,12129.1221,E,1,00,00005.444,M 
$GPGGA,131548.000,3114.3225,N,12129.1231,E,1,00,00006.358,M 
$GPGGA,131549.000,3114.3209,N,12129.1254,E,1,00,00004.392,M 
$GPGGA,131550.000,3114.3228,N,12129.1255,E,1,00,00006.223,M 
$GPGGA,131551.000,3114.3217,N,12129.1273,E,1,00,00006.684,M 
$GPGGA,131552.000,3114.3233,N,12129.1284,E,1,00,00006.664,M 
$GPGGA,131553.000,3114.3241,N,12129.1291,E,1,00,00006.782,M 
$GPGGA,131554.000,3114.3245,N,12129.1309,E,1,00,00008.612,M 
$GPGGA,131555.000,3114.3250,N,12129.1318,E,1,00,00006.900,M 
$GPGGA,131556.000,3114.3271,N,12129.1317,E,1,00,00007.296,M 
$GPGGA,131557.000,3114.3263,N,12129.1328,E,1,00,00006.272,M 
$GPGGA,131558.000,3114.3256,N,12129.1334,E,1,00,00007.775,M 
$GPGGA,131559.000,3114.3252,N,12129.1350,E,1,00,00006.292,M 
$GPGGA,131600.000,3114.3264,N,12129.1345,E,1,00,00007.178,M 
$GPGGA,131601.000,3114.3276,N,12129.1343,E,1,00,00008.899,M 
$GPGGA,131602.000,3114.3272,N,12129.1352,E,1,00,00007.704,M 
$GPGGA,131603.000,3114.3260,N,12129.1360,E,1,00,00005.929,M 
$GPGGA,131604.000,3114.3267,N,12129.1358,E,1,00,00005.458,M 
$GPGGA,131605.000,3114.3272,N,12129.1353,E,1,00,00006.102,M 
$GPGGA,131606.000,3114.3266,N,12129.1358,E,1,00,00006.160,M 
$GPGGA,131607.000,3114.3264,N,12129.1359,E,1,00,00006.407,M 
$GPGGA,131608.000,3114.3263,N,12129.1359,E,1,00,00006.840,M 
$GPGGA,131609.000,3114.3258,N,12129.1362,E,1,00,00006.462,M 
$GPGGA,131610.000,3114.3260,N,12129.1362,E,1,00,00007.580,M 
$GPGGA,131611.000,3114.3257,N,12129.1367,E,1,00,00009.621,M 
$GPGGA,131612.000,3114.3265,N,12129.1370,E,1,00,00009.621,M 
$GPGGA,131613.000,3114.3265,N,12129.1380,E,1,00,00008.943,M 
$GPGGA,131614.000,3114.3263,N,12129.1390,E,1,00,00007.921,M 
$GPGGA,131615.000,3114.3267,N,12129.1399,E,1,00,00008.154,M 
$GPGGA,131616.000,3114.3270,N,12129.1408,E,1,00,00007.270,M 
$GPGGA,131617.000,3114.3267,N,12129.1413,E,1,00,00010.971,M 
$GPGGA,131618.000,3114.3274,N,12129.1416,E,1,00,00010.265,M 
$GPGGA,131619.000,3114.3283,N,12129.1417,E,1,00,00008.940,M 
$GPGGA,131620.000,3114.3267,N,12129.1435,E,1,00,00007.179,M 
$GPGGA,131621.000,3114.3283,N,12129.1428,E,1,00,00009.035,M 
$GPGGA,131622.000,3114.3275,N,12129.1438,E,1,00,00009.195,M 
$GPGGA,131623.000,3114.3276,N,12129.1442,E,1,00,00010.163,M 
$GPGGA,131624.000,3114.3281,N,12129.1440,E,1,00,00009.583,M 
$GPGGA,131625.000,3114.3283,N,12129.1445,E,1,00,00009.647,M 
$GPGGA,131626.000,3114.3285,N,12129.1439,E,1,00,00009.634,M 
$GPGGA,131627.000,3114.3296,N,12129.1427,E,1,00,00009.724,M 
$GPGGA,131628.000,3114.3281,N,12129.1440,E,1,00,00008.345,M 
$GPGGA,131629.000,3114.3283,N,12129.1441,E,1,00,00008.358,M 
$GPGGA,131630.000,3114.3285,N,12129.1442,E,1,00,00008.372,M 
$GPGGA,131631.000,3114.3285,N,12129.1438,E,1,00,00007.499,M 
$GPGGA,131632.000,3114.3294,N,12129.1438,E,1,00,00010.005,M 
$GPGGA,131633.000,3114.3293,N,12129.1439,E,1,00,00010.628,M 
$GPGGA,131634.000,3114.3286,N,12129.1437,E,1,00,00008.896,M 
$GPGGA,131635.000,3114.3275,N,12129.1433,E,1,00,00006.012,M 
$GPGGA,131636.000,3114.3270,N,12129.1428,E,1,00,00004.724,M 
$GPGGA,131637.000,3114.3265,N,12129.1425,E,1,00,00005.990,M 
$GPGGA,131638.000,3114.3272,N,12129.1427,E,1,00,00009.642,M 
$GPGGA,131639.000,3114.3282,N,12129.1431,E,1,00,00011.632,M 
$GPGGA,131640.000,3114.3282,N,12129.1446,E,1,00,00013.927,M 
$GPGGA,131641.000,3114.3271,N,12129.1448,E,1,00,00010.634,M 
$GPGGA,131642.000,3114.3259,N,12129.1451,E,1,00,00010.352,M 
$GPGGA,131643.000,3114.3267,N,12129.1451,E,1,00,00011.414,M 
$GPGGA,131644.000,3114.3254,N,12129.1440,E,1,00,00005.971,M 
$GPGGA,131645.000,3114.3238,N,12129.1444,E,1,00,00002.949,M 
$GPGGA,131646.000,3114.3232,N,12129.1446,E,1,00,00002.288,M 
$GPGGA,131647.000,3114.3240,N,12129.1441,E,1,00,00004.661,M 
$GPGGA,131648.000,3114.3242,N,12129.1442,E,1,00,00005.946,M 
$GPGGA,131649.000,3114.3245,N,12129.1446,E,1,00,00009.284,M 
$GPGGA,131650.000,3114.3236,N,12129.1449,E,1,00,00006.645,M 
$GPGGA,131651.000,3114.3232,N,12129.1445,E,1,00,00007.220,M 
$GPGGA,131652.000,3114.3221,N,12129.1450,E,1,00,00004.029,M 
$GPGGA,131653.000,3114.3221,N,12129.1447,E,1,00,00002.783,M 
$GPGGA,131654.000,3114.3222,N,12129.1449,E,1,00,00003.199,M 
$GPGGA,131655.000,3114.3214,N,12129.1446,E,1,00,00002.129,M 
$GPGGA,131656.000,3114.3212,N,12129.1444,E,1,00,00000.415,M 
$GPGGA,131657.000,3114.3225,N,12129.1438,E,1,00,00004.261,M 
$GPGGA,131658.000,3114.3243,N,12129.1438,E,1,00,00008.657,M 
$GPGGA,131659.000,3114.3231,N,12129.1437,E,1,00,00007.820,M 
$GPGGA,131700.000,3114.3225,N,12129.1436,E,1,00,00004.981,M 
$GPGGA,131701.000,3114.3211,N,12129.1435,E,1,00,00001.634,M 
$GPGGA,131702.000,3114.3214,N,12129.1437,E,1,00,00002.017,M 
$GPGGA,131703.000,3114.3207,N,12129.1439,E,1,00,00001.751,M 
$GPGGA,131704.000,3114.3211,N,12129.1441,E,1,00,00003.490,M 
$GPGGA,131705.000,3114.3215,N,12129.1443,E,1,00,00005.461,M 
$GPGGA,131706.000,3114.3223,N,12129.1445,E,1,00,00007.968,M 
$GPGGA,131707.000,3114.3224,N,12129.1447,E,1,00,00008.064,M 
$GPGGA,131708.000,3114.3220,N,12129.1450,E,1,00,00007.461,M 
$GPGGA,131709.000,3114.3223,N,12129.1455,E,1,00,00008.353,M 
$GPGGA,131710.000,3114.3232,N,12129.1454,E,1,00,00012.108,M 
$GPGGA,131711.000,3114.3234,N,12129.1457,E,1,00,00013.854,M 
$GPGGA,131712.000,3114.3218,N,12129.1458,E,1,00,00010.237,M 
$GPGGA,131713.000,3114.3223,N,12129.1456,E,1,00,00013.471,M 
$GPGGA,131714.000,3114.3211,N,12129.1458,E,1,00,00014.039,M 
$GPGGA,131715.000,3114.3200,N,12129.1455,E,1,00,00011.686,M 
$GPGGA,131716.000,3114.3190,N,12129.1450,E,1,00,00009.802,M 
$GPGGA,131717.000,3114.3180,N,12129.1448,E,1,00,00009.516,M 
$GPGGA,131718.000,3114.3183,N,12129.1453,E,1,00,00012.101,M 
$GPGGA,131719.000,3114.3198,N,12129.1457,E,1,00,00018.406,M 
$GPGGA,131720.000,3114.3210,N,12129.1460,E,1,00,00021.073,M 
$GPGGA,131721.000,3114.3209,N,12129.1463,E,1,00,00021.644,M 
$GPGGA,131722.000,3114.3200,N,12129.1469,E,1,00,00022.789,M 
$GPGGA,131723.000,3114.3193,N,12129.1467,E,1,00,00021.864,M 
$GPGGA,131724.000,3114.3189,N,12129.1470,E,1,00,00022.599,M 
$GPGGA,131725.000,3114.3196,N,12129.1472,E,1,00,00024.325,M 
$GPGGA,131726.000,3114.3203,N,12129.1475,E,1,00,00025.441,M 
$GPGGA,131727.000,3114.3181,N,12129.1469,E,1,00,00020.205,M 
$GPGGA,131728.000,3114.3156,N,12129.1462,E,1,00,00011.974,M 
$GPGGA,131729.000,3114.3143,N,12129.1456,E,1,00,00010.945,M 
$GPGGA,131730.000,3114.3118,N,12129.1455,E,1,00,00006.570,M 
$GPGGA,131731.000,3114.3117,N,12129.1454,E,1,00,00005.517,M 
$GPGGA,131732.000,3114.3098,N,12129.1455,E,1,00,00007.064,M 
$GPGGA,131733.000,3114.3072,N,12129.1462,E,1,00,00004.641,M 
$GPGGA,131734.000,3114.3056,N,12129.1487,E,1,00,00006.567,M 
$GPGGA,131735.000,3114.3034,N,12129.1483,E,1,00,00006.404,M 
$GPGGA,131736.000,3114.3008,N,12129.1480,E,1,00,00004.876,M 
$GPGGA,131737.000,3114.2979,N,12129.1477,E,1,00,00002.793,M 
$GPGGA,131738.000,3114.2950,N,12129.1477,E,1,00,00001.118,M 
$GPGGA,131739.000,3114.2921,N,12129.1478,E,1,00,-0000.110,M 
$GPGGA,131740.000,3114.2896,N,12129.1482,E,1,00,-0000.123,M 
$GPGGA,131741.000,3114.2872,N,12129.1492,E,1,00,-0000.654,M 
$GPGGA,131742.000,3114.2847,N,12129.1494,E,1,00,-0001.330,M 
$GPGGA,131743.000,3114.2820,N,12129.1500,E,1,00,-0001.526,M 
$GPGGA,131744.000,3114.2790,N,12129.1504,E,1,00,-0001.541,M 
$GPGGA,131745.000,3114.2759,N,12129.1506,E,1,00,-0001.335,M 
$GPGGA,131746.000,3114.2731,N,12129.1511,E,1,00,-0001.789,M 
$GPGGA,131747.000,3114.2699,N,12129.1517,E,1,00,-0000.082,M 
$GPGGA,131748.000,3114.2673,N,12129.1527,E,1,00,00002.425,M 
$GPGGA,131749.000,3114.2646,N,12129.1534,E,1,00,00001.108,M 
$GPGGA,131750.000,3114.2620,N,12129.1534,E,1,00,00000.155,M 
$GPGGA,131751.000,3114.2602,N,12129.1537,E,1,00,00001.452,M 
$GPGGA,131752.000,3114.2582,N,12129.1540,E,1,00,00000.581,M 
$GPGGA,131753.000,3114.2567,N,12129.1536,E,1,00,00001.144,M 
$GPGGA,131754.000,3114.2552,N,12129.1530,E,1,00,00001.430,M 
$GPGGA,131755.000,3114.2540,N,12129.1523,E,1,00,00000.934,M 
$GPGGA,131756.000,3114.2535,N,12129.1536,E,1,00,00004.023,M 
$GPGGA,131757.000,3114.2538,N,12129.1532,E,1,00,00008.526,M 
$GPGGA,131758.000,3114.2524,N,12129.1536,E,1,00,00007.844,M 
$GPGGA,131759.000,3114.2510,N,12129.1537,E,1,00,00008.018,M 
$GPGGA,131800.000,3114.2502,N,12129.1525,E,1,00,00007.769,M 
$GPGGA,131801.000,3114.2489,N,12129.1514,E,1,00,00007.312,M 
$GPGGA,131802.000,3114.2478,N,12129.1498,E,1,00,00006.969,M 
$GPGGA,131803.000,3114.2484,N,12129.1467,E,1,00,00007.915,M 
$GPGGA,131804.000,3114.2472,N,12129.1444,E,1,00,00008.154,M 
$GPGGA,131805.000,3114.2482,N,12129.1411,E,1,00,00009.729,M 
$GPGGA,131806.000,3114.2486,N,12129.1378,E,1,00,00011.540,M 
$GPGGA,131807.000,3114.2484,N,12129.1346,E,1,00,00012.502,M 
$GPGGA,131808.000,3114.2482,N,12129.1313,E,1,00,00012.797,M 
$GPGGA,131809.000,3114.2476,N,12129.1287,E,1,00,00011.332,M 
$GPGGA,131810.000,3114.2467,N,12129.1256,E,1,00,00010.970,M 
$GPGGA,131811.000,3114.2446,N,12129.1228,E,1,00,00011.556,M 
$GPGGA,131812.000,3114.2451,N,12129.1197,E,1,00,00010.476,M 
$GPGGA,131813.000,3114.2456,N,12129.1163,E,1,00,00009.168,M 
$GPGGA,131814.000,3114.2471,N,12129.1130,E,1,00,00012.313,M 
$GPGGA,131815.000,3114.2458,N,12129.1106,E,1,00,00012.554,M 
$GPGGA,131816.000,3114.2440,N,12129.1086,E,1,00,00011.959,M 
$GPGGA,131817.000,3114.2437,N,12129.1050,E,1,00,00014.548,M 
$GPGGA,131818.000,3114.2432,N,12129.1013,E,1,00,00020.288,M 
$GPGGA,131819.000,3114.2432,N,12129.1006,E,1,00,00019.034,M 
$GPGGA,131820.000,3114.2430,N,12129.0993,E,1,00,00015.952,M 
$GPGGA,131821.000,3114.2416,N,12129.0980,E,1,00,00014.045,M 
$GPGGA,131822.000,3114.2419,N,12129.0959,E,1,00,00014.491,M 
$GPGGA,131823.000,3114.2424,N,12129.0939,E,1,00,00015.249,M 
$GPGGA,131824.000,3114.2427,N,12129.0920,E,1,00,00014.876,M 
$GPGGA,131825.000,3114.2391,N,12129.0923,E,1,00,00012.604,M 
$GPGGA,131826.000,3114.2370,N,12129.0924,E,1,00,00008.883,M 
$GPGGA,131827.000,3114.2368,N,12129.0910,E,1,00,00008.064,M 
$GPGGA,131828.000,3114.2342,N,12129.0917,E,1,00,00003.969,M 
$GPGGA,131829.000,3114.2334,N,12129.0913,E,1,00,00002.904,M 
$GPGGA,131830.000,3114.2338,N,12129.0903,E,1,00,00002.339,M 
$GPGGA,131831.000,3114.2333,N,12129.0903,E,1,00,00000.469,M 
$GPGGA,131832.000,3114.2313,N,12129.0906,E,1,00,-0001.634,M 
$GPGGA,131833.000,3114.2321,N,12129.0902,E,1,00,-0002.098,M 
$GPGGA,131834.000,3114.2291,N,12129.0910,E,1,00,-0005.537,M 
$GPGGA,131835.000,3114.2297,N,12129.0914,E,1,00,-0007.940,M 
$GPGGA,131836.000,3114.2304,N,12129.0909,E,1,00,-0006.272,M 
$GPGGA,131837.000,3114.2316,N,12129.0902,E,1,00,-0004.223,M 
$GPGGA,131838.000,3114.2336,N,12129.0890,E,1,00,-0000.420,M 
$GPGGA,131839.000,3114.2349,N,12129.0883,E,1,00,00002.404,M 
$GPGGA,131840.000,3114.2363,N,12129.0874,E,1,00,00005.341,M 
$GPGGA,131841.000,3114.2376,N,12129.0867,E,1,00,00008.596,M 
$GPGGA,131842.000,3114.2385,N,12129.0861,E,1,00,00010.946,M 
$GPGGA,131843.000,3114.2395,N,12129.0855,E,1,00,00012.148,M 
$GPGGA,131844.000,3114.2393,N,12129.0855,E,1,00,00012.405,M 
$GPGGA,131845.000,3114.2327,N,12129.0892,E,1,00,00001.593,M 
$GPGGA,131846.000,3114.2322,N,12129.0886,E,1,00,00000.781,M 
$GPGGA,131847.000,3114.2325,N,12129.0882,E,1,00,00000.270,M 
$GPGGA,131848.000,3114.2297,N,12129.0896,E,1,00,-0003.727,M 
$GPGGA,131849.000,3114.2298,N,12129.0885,E,1,00,-0002.524,M 
$GPGGA,131850.000,3114.2286,N,12129.0889,E,1,00,-0003.269,M 
$GPGGA,131851.000,3114.2284,N,12129.0887,E,1,00,-0004.887,M 
$GPGGA,131852.000,3114.2291,N,12129.0881,E,1,00,-0005.436,M 
$GPGGA,131853.000,3114.2294,N,12129.0870,E,1,00,-0002.621,M 
$GPGGA,131854.000,3114.2301,N,12129.0859,E,1,00,-0000.878,M 
$GPGGA,131855.000,3114.2299,N,12129.0852,E,1,00,-0000.153,M 
$GPGGA,131856.000,3114.2298,N,12129.0834,E,1,00,00002.235,M 
$GPGGA,131857.000,3114.2293,N,12129.0832,E,1,00,-0000.280,M 
$GPGGA,131858.000,3114.2291,N,12129.0826,E,1,00,-0002.060,M 
$GPGGA,131859.000,3114.2289,N,12129.0823,E,1,00,-0003.551,M 
$GPGGA,131900.000,3114.2281,N,12129.0824,E,1,00,-0006.009,M 
$GPGGA,131901.000,3114.2265,N,12129.0824,E,1,00,-0005.126,M 
$GPGGA,131902.000,3114.2206,N,12129.0844,E,1,00,-0008.952,M 
$GPGGA,131903.000,3114.2205,N,12129.0849,E,1,00,-0013.281,M 
$GPGGA,131904.000,3114.2223,N,12129.0833,E,1,00,-0008.731,M 
$GPGGA,131905.000,3114.2246,N,12129.0815,E,1,00,-0003.174,M 
$GPGGA,131906.000,3114.2240,N,12129.0816,E,1,00,-0003.304,M 
$GPGGA,131907.000,3114.2261,N,12129.0795,E,1,00,00003.236,M 
$GPGGA,131908.000,3114.2277,N,12129.0793,E,1,00,00004.514,M 
$GPGGA,131909.000,3114.2277,N,12129.0787,E,1,00,00004.638,M 
$GPGGA,131910.000,3114.2279,N,12129.0790,E,1,00,00002.810,M 
$GPGGA,131911.000,3114.2283,N,12129.0783,E,1,00,00002.541,M 
$GPGGA,131912.000,3114.2332,N,12129.0751,E,1,00,00007.265,M 
$GPGGA,131913.000,3114.2330,N,12129.0754,E,1,00,00004.454,M 
$GPGGA,131914.000,3114.2351,N,12129.0733,E,1,00,00007.209,M 
$GPGGA,131915.000,3114.2366,N,12129.0722,E,1,00,00012.451,M 
$GPGGA,131916.000,3114.2375,N,12129.0707,E,1,00,00018.469,M 
$GPGGA,131917.000,3114.2387,N,12129.0705,E,1,00,00019.030,M 
$GPGGA,131918.000,3114.2377,N,12129.0696,E,1,00,00019.343,M 
$GPGGA,131919.000,3114.2365,N,12129.0684,E,1,00,00019.905,M 
$GPGGA,131920.000,3114.2364,N,12129.0660,E,1,00,00021.357,M 
$GPGGA,131921.000,3114.2354,N,12129.0644,E,1,00,00019.021,M 
$GPGGA,131922.000,3114.2338,N,12129.0631,E,1,00,00015.624,M 
$GPGGA,131923.000,3114.2313,N,12129.0611,E,1,00,00011.753,M 
$GPGGA,131924.000,3114.2292,N,12129.0589,E,1,00,00008.976,M 
$GPGGA,131925.000,3114.2340,N,12129.0537,E,1,00,00013.620,M 
$GPGGA,131926.000,3114.2317,N,12129.0520,E,1,00,00009.749,M 
$GPGGA,131927.000,3114.2291,N,12129.0494,E,1,00,00007.485,M 
$GPGGA,131928.000,3114.2273,N,12129.0469,E,1,00,00005.803,M 
$GPGGA,131929.000,3114.2252,N,12129.0447,E,1,00,00002.123,M 
$GPGGA,131930.000,3114.2266,N,12129.0400,E,1,00,00005.142,M 
$GPGGA,131931.000,3114.2246,N,12129.0378,E,1,00,00004.111,M 
$GPGGA,131932.000,3114.2240,N,12129.0351,E,1,00,00005.180,M 
$GPGGA,131933.000,3114.2218,N,12129.0330,E,1,00,00002.336,M 
$GPGGA,131934.000,3114.2186,N,12129.0314,E,1,00,-0001.053,M 
$GPGGA,131935.000,3114.2176,N,12129.0282,E,1,00,-0001.908,M 
$GPGGA,131936.000,3114.2176,N,12129.0251,E,1,00,-0001.285,M 
$GPGGA,131937.000,3114.2188,N,12129.0211,E,1,00,00001.304,M 
$GPGGA,131938.000,3114.2187,N,12129.0181,E,1,00,00000.363,M 
$GPGGA,131939.000,3114.2185,N,12129.0150,E,1,00,-0000.032,M 
$GPGGA,131940.000,3114.2168,N,12129.0115,E,1,00,-0000.431,M 
$GPGGA,131941.000,3114.2166,N,12129.0085,E,1,00,-0000.822,M 
$GPGGA,131942.000,3114.2161,N,12129.0048,E,1,00,00001.188,M 
$GPGGA,131943.000,3114.2144,N,12129.0023,E,1,00,00000.561,M 
$GPGGA,131944.000,3114.2135,N,12128.9999,E,1,00,-0001.495,M 
$GPGGA,131945.000,3114.2121,N,12128.9970,E,1,00,-0001.703,M 
$GPGGA,131946.000,3114.2116,N,12128.9950,E,1,00,-0001.719,M 
$GPGGA,131947.000,3114.2114,N,12128.9930,E,1,00,-0002.284,M 
$GPGGA,131948.000,3114.2170,N,12128.9882,E,1,00,00001.222,M 
$GPGGA,131949.000,3114.2193,N,12128.9848,E,1,00,00005.991,M 
$GPGGA,131950.000,3114.2211,N,12128.9822,E,1,00,00010.296,M 
$GPGGA,131951.000,3114.2224,N,12128.9785,E,1,00,00016.120,M 
$GPGGA,131952.000,3114.2240,N,12128.9769,E,1,00,00019.974,M 
$GPGGA,131953.000,3114.2237,N,12128.9752,E,1,00,00020.562,M 
$GPGGA,131954.000,3114.2247,N,12128.9719,E,1,00,00025.321,M 
$GPGGA,131955.000,3114.2262,N,12128.9694,E,1,00,00029.984,M 
$GPGGA,131956.000,3114.2263,N,12128.9668,E,1,00,00033.644,M 
$GPGGA,131957.000,3114.2271,N,12128.9637,E,1,00,00040.460,M 
$GPGGA,131958.000,3114.2282,N,12128.9632,E,1,00,00043.073,M 
$GPGGA,131959.000,3114.2296,N,12128.9626,E,1,00,00044.531,M 
$GPGGA,132000.000,3114.2307,N,12128.9602,E,1,00,00049.051,M 
$GPGGA,132001.000,3114.2322,N,12128.9579,E,1,00,00053.342,M 
$GPGGA,132002.000,3114.2329,N,12128.9518,E,1,00,00062.872,M 
$GPGGA,132003.000,3114.2395,N,12128.9588,E,1,00,00073.690,M 
$GPGGA,132004.000,3114.2435,N,12128.9617,E,1,00,00079.338,M 
$GPGGA,132005.000,3114.2464,N,12128.9599,E,1,00,00080.544,M 
$GPGGA,132006.000,3114.2480,N,12128.9604,E,1,00,00083.435,M 
$GPGGA,132007.000,3114.2501,N,12128.9571,E,1,00,00083.236,M 
$GPGGA,132008.000,3114.2521,N,12128.9556,E,1,00,00082.254,M 
$GPGGA,132009.000,3114.2547,N,12128.9547,E,1,00,00081.819,M 
$GPGGA,132010.000,3114.2575,N,12128.9546,E,1,00,00082.713,M 
$GPGGA,132011.000,3114.2603,N,12128.9528,E,1,00,00082.784,M 
$GPGGA,132012.000,3114.2612,N,12128.9503,E,1,00,00080.031,M 
$GPGGA,132013.000,3114.2632,N,12128.9511,E,1,00,00075.624,M 
$GPGGA,132014.000,3114.2662,N,12128.9522,E,1,00,00075.112,M 
$GPGGA,132015.000,3114.2709,N,12128.9561,E,1,00,00075.878,M 
$GPGGA,132016.000,3114.2715,N,12128.9522,E,1,00,00073.847,M 
$GPGGA,132017.000,3114.2739,N,12128.9516,E,1,00,00072.520,M 
$GPGGA,132018.000,3114.2749,N,12128.9490,E,1,00,00071.527,M 
$GPGGA,132019.000,3114.2789,N,12128.9516,E,1,00,00071.180,M 
$GPGGA,132020.000,3114.2812,N,12128.9504,E,1,00,00070.810,M 
$GPGGA,132021.000,3114.2836,N,12128.9498,E,1,00,00069.937,M 
$GPGGA,132022.000,3114.2869,N,12128.9514,E,1,00,00068.471,M 
$GPGGA,132023.000,3114.2885,N,12128.9500,E,1,00,00066.070,M 
$GPGGA,132024.000,3114.2876,N,12128.9434,E,1,00,00063.782,M 
$GPGGA,132025.000,3114.2884,N,12128.9565,E,1,00,00025.338,M 
