$GPGGA,131731.000,3101.5496,N,12126.5925,E,1,00,-0017.081,M 
$GPGGA,131732.000,3101.5504,N,12126.5919,E,1,00,-0015.339,M 
$GPGGA,131733.000,3101.5514,N,12126.5931,E,1,00,-0009.440,M 
$GPGGA,131734.000,3101.5521,N,12126.5966,E,1,00,-0001.990,M 
$GPGGA,131735.000,3101.5513,N,12126.5999,E,1,00,00008.346,M 
$GPGGA,131736.000,3101.5497,N,12126.6018,E,1,00,00019.086,M 
$GPGGA,131737.000,3101.5470,N,12126.6029,E,1,00,00028.378,M 
$GPGGA,131738.000,3101.5446,N,12126.6030,E,1,00,00041.260,M 
$GPGGA,131739.000,3101.5440,N,12126.6025,E,1,00,00042.167,M 
$GPGGA,131740.000,3101.5442,N,12126.5999,E,1,00,00043.748,M 
$GPGGA,131741.000,3101.5442,N,12126.5968,E,1,00,00045.266,M 
$GPGGA,131742.000,3101.5431,N,12126.5954,E,1,00,00045.153,M 
$GPGGA,131743.000,3101.5423,N,12126.5932,E,1,00,00036.193,M 
$GPGGA,131744.000,3101.5416,N,12126.5924,E,1,00,00038.295,M 
$GPGGA,131745.000,3101.5418,N,12126.5918,E,1,00,00038.009,M 
$GPGGA,131746.000,3101.5424,N,12126.5907,E,1,00,00034.964,M 
$GPGGA,131747.000,3101.5424,N,12126.5893,E,1,00,00034.326,M 
$GPGGA,131748.000,3101.5424,N,12126.5879,E,1,00,00030.249,M 
$GPGGA,131749.000,3101.5416,N,12126.5874,E,1,00,00030.562,M 
$GPGGA,131750.000,3101.5419,N,12126.5865,E,1,00,00028.170,M 
$GPGGA,131751.000,3101.5418,N,12126.5850,E,1,00,00034.579,M 
$GPGGA,131752.000,3101.5428,N,12126.5838,E,1,00,00031.700,M 
$GPGGA,131753.000,3101.5423,N,12126.5822,E,1,00,00032.234,M 
$GPGGA,131754.000,3101.5428,N,12126.5804,E,1,00,00030.678,M 
$GPGGA,131755.000,3101.5420,N,12126.5786,E,1,00,00031.205,M 
$GPGGA,131756.000,3101.5419,N,12126.5771,E,1,00,00029.594,M 
$GPGGA,131757.000,3101.5413,N,12126.5757,E,1,00,00027.536,M 
$GPGGA,131758.000,3101.5411,N,12126.5737,E,1,00,00034.121,M 
$GPGGA,131759.000,3101.5416,N,12126.5726,E,1,00,00036.483,M 
$GPGGA,131800.000,3101.5408,N,12126.5712,E,1,00,00037.869,M 
$GPGGA,131801.000,3101.5419,N,12126.5694,E,1,00,00031.488,M 
$GPGGA,131802.000,3101.5418,N,12126.5688,E,1,00,00033.021,M 
$GPGGA,131803.000,3101.5419,N,12126.5678,E,1,00,00035.382,M 
$GPGGA,131804.000,3101.5416,N,12126.5674,E,1,00,00034.055,M 
$GPGGA,131805.000,3101.5399,N,12126.5671,E,1,00,00032.483,M 
$GPGGA,131806.000,3101.5397,N,12126.5669,E,1,00,00027.428,M 
$GPGGA,131807.000,3101.5401,N,12126.5671,E,1,00,00026.459,M 
$GPGGA,131808.000,3101.5403,N,12126.5663,E,1,00,00023.459,M 
$GPGGA,131809.000,3101.5414,N,12126.5656,E,1,00,00024.489,M 
$GPGGA,131810.000,3101.5411,N,12126.5645,E,1,00,00026.330,M 
$GPGGA,131811.000,3101.5409,N,12126.5639,E,1,00,00026.979,M 
$GPGGA,131812.000,3101.5403,N,12126.5631,E,1,00,00025.854,M 
$GPGGA,131813.000,3101.5392,N,12126.5642,E,1,00,00025.922,M 
$GPGGA,131814.000,3101.5394,N,12126.5641,E,1,00,00023.674,M 
$GPGGA,131815.000,3101.5383,N,12126.5632,E,1,00,00024.216,M 
$GPGGA,131816.000,3101.5384,N,12126.5623,E,1,00,00020.335,M 
$GPGGA,131817.000,3101.5383,N,12126.5611,E,1,00,00020.500,M 
$GPGGA,131818.000,3101.5375,N,12126.5607,E,1,00,00020.544,M 
$GPGGA,131819.000,3101.5365,N,12126.5601,E,1,00,00019.255,M 
$GPGGA,131820.000,3101.5365,N,12126.5582,E,1,00,00017.045,M 
$GPGGA,131821.000,3101.5373,N,12126.5575,E,1,00,00017.205,M 
$GPGGA,131822.000,3101.5368,N,12126.5561,E,1,00,00017.689,M 
$GPGGA,131823.000,3101.5375,N,12126.5554,E,1,00,00016.813,M 
$GPGGA,131824.000,3101.5375,N,12126.5537,E,1,00,00018.962,M 
$GPGGA,131825.000,3101.5363,N,12126.5531,E,1,00,00017.702,M 
$GPGGA,131826.000,3101.5358,N,12126.5529,E,1,00,00014.917,M 
$GPGGA,131827.000,3101.5349,N,12126.5529,E,1,00,00015.168,M 
$GPGGA,131828.000,3101.5347,N,12126.5521,E,1,00,00016.188,M 
$GPGGA,131829.000,3101.5341,N,12126.5517,E,1,00,00015.522,M 
$GPGGA,131830.000,3101.5356,N,12126.5508,E,1,00,00016.824,M 
$GPGGA,131831.000,3101.5354,N,12126.5512,E,1,00,00018.129,M 
$GPGGA,131832.000,3101.5342,N,12126.5506,E,1,00,00016.464,M 
$GPGGA,131833.000,3101.5346,N,12126.5509,E,1,00,00015.542,M 
$GPGGA,131834.000,3101.5356,N,12126.5506,E,1,00,00015.994,M 
$GPGGA,131835.000,3101.5363,N,12126.5505,E,1,00,00014.553,M 
$GPGGA,131836.000,3101.5363,N,12126.5502,E,1,00,00016.864,M 
$GPGGA,131837.000,3101.5350,N,12126.5499,E,1,00,00016.810,M 
$GPGGA,131838.000,3101.5345,N,12126.5499,E,1,00,00015.673,M 
$GPGGA,131839.000,3101.5346,N,12126.5496,E,1,00,00014.389,M 
$GPGGA,131840.000,3101.5344,N,12126.5489,E,1,00,00015.265,M 
$GPGGA,131841.000,3101.5345,N,12126.5487,E,1,00,00013.108,M 
$GPGGA,131842.000,3101.5352,N,12126.5487,E,1,00,00014.275,M 
$GPGGA,131843.000,3101.5346,N,12126.5468,E,1,00,00013.241,M 
$GPGGA,131844.000,3101.5337,N,12126.5457,E,1,00,00014.725,M 
$GPGGA,131845.000,3101.5340,N,12126.5449,E,1,00,00014.889,M 
$GPGGA,131846.000,3101.5343,N,12126.5439,E,1,00,00016.724,M 
$GPGGA,131847.000,3101.5339,N,12126.5420,E,1,00,00013.915,M 
$GPGGA,131848.000,3101.5335,N,12126.5407,E,1,00,00011.471,M 
$GPGGA,131849.000,3101.5333,N,12126.5396,E,1,00,00013.506,M 
$GPGGA,131850.000,3101.5334,N,12126.5388,E,1,00,00014.524,M 
$GPGGA,131851.000,3101.5332,N,12126.5379,E,1,00,00011.247,M 
$GPGGA,131852.000,3101.5329,N,12126.5365,E,1,00,00015.741,M 
$GPGGA,131853.000,3101.5329,N,12126.5350,E,1,00,00013.564,M 
$GPGGA,131854.000,3101.5326,N,12126.5343,E,1,00,00016.991,M 
$GPGGA,131855.000,3101.5326,N,12126.5334,E,1,00,00021.385,M 
$GPGGA,131856.000,3101.5325,N,12126.5325,E,1,00,00020.240,M 
$GPGGA,131857.000,3101.5329,N,12126.5314,E,1,00,00023.849,M 
$GPGGA,131858.000,3101.5335,N,12126.5307,E,1,00,00024.550,M 
$GPGGA,131859.000,3101.5329,N,12126.5292,E,1,00,00027.608,M 
$GPGGA,131900.000,3101.5329,N,12126.5290,E,1,00,00027.315,M 
$GPGGA,131901.000,3101.5333,N,12126.5281,E,1,00,00027.682,M 
$GPGGA,131902.000,3101.5340,N,12126.5277,E,1,00,00027.238,M 
$GPGGA,131903.000,3101.5342,N,12126.5268,E,1,00,00029.062,M 
$GPGGA,131904.000,3101.5345,N,12126.5269,E,1,00,00029.718,M 
$GPGGA,131905.000,3101.5340,N,12126.5263,E,1,00,00032.451,M 
$GPGGA,131906.000,3101.5334,N,12126.5256,E,1,00,00037.672,M 
$GPGGA,131907.000,3101.5330,N,12126.5264,E,1,00,00037.674,M 
$GPGGA,131908.000,3101.5328,N,12126.5257,E,1,00,00036.047,M 
$GPGGA,131909.000,3101.5329,N,12126.5263,E,1,00,00036.829,M 
$GPGGA,131910.000,3101.5319,N,12126.5255,E,1,00,00035.970,M 
$GPGGA,131911.000,3101.5306,N,12126.5247,E,1,00,00032.147,M 
$GPGGA,131912.000,3101.5300,N,12126.5236,E,1,00,00029.492,M 
$GPGGA,131913.000,3101.5293,N,12126.5221,E,1,00,00029.046,M 
$GPGGA,131914.000,3101.5283,N,12126.5210,E,1,00,00029.276,M 
$GPGGA,131915.000,3101.5267,N,12126.5197,E,1,00,00028.183,M 
$GPGGA,131916.000,3101.5262,N,12126.5190,E,1,00,00029.873,M 
$GPGGA,131917.000,3101.5260,N,12126.5182,E,1,00,00028.837,M 
$GPGGA,131918.000,3101.5241,N,12126.5167,E,1,00,00027.312,M 
$GPGGA,131919.000,3101.5235,N,12126.5163,E,1,00,00027.424,M 
$GPGGA,131920.000,3101.5235,N,12126.5150,E,1,00,00027.847,M 
$GPGGA,131921.000,3101.5233,N,12126.5146,E,1,00,00028.878,M 
$GPGGA,131922.000,3101.5239,N,12126.5138,E,1,00,00027.687,M 
$GPGGA,131923.000,3101.5237,N,12126.5132,E,1,00,00028.533,M 
$GPGGA,131924.000,3101.5236,N,12126.5126,E,1,00,00026.540,M 
$GPGGA,131925.000,3101.5240,N,12126.5126,E,1,00,00026.081,M 
$GPGGA,131926.000,3101.5229,N,12126.5117,E,1,00,00025.615,M 
$GPGGA,131927.000,3101.5225,N,12126.5112,E,1,00,00024.663,M 
$GPGGA,131928.000,3101.5218,N,12126.5106,E,1,00,00024.450,M 
$GPGGA,131929.000,3101.5218,N,12126.5093,E,1,00,00025.246,M 
$GPGGA,131930.000,3101.5219,N,12126.5083,E,1,00,00023.786,M 
$GPGGA,131931.000,3101.5233,N,12126.5086,E,1,00,00022.821,M 
$GPGGA,131932.000,3101.5228,N,12126.5076,E,1,00,00020.236,M 
$GPGGA,131933.000,3101.5228,N,12126.5064,E,1,00,00019.624,M 
$GPGGA,131934.000,3101.5230,N,12126.5058,E,1,00,00020.805,M 
$GPGGA,131935.000,3101.5225,N,12126.5051,E,1,00,00020.280,M 
$GPGGA,131936.000,3101.5221,N,12126.5043,E,1,00,00021.227,M 
$GPGGA,131937.000,3101.5220,N,12126.5028,E,1,00,00018.622,M 
$GPGGA,131938.000,3101.5211,N,12126.5020,E,1,00,00019.466,M 
$GPGGA,131939.000,3101.5219,N,12126.5016,E,1,00,00018.685,M 
$GPGGA,131940.000,3101.5215,N,12126.5000,E,1,00,00020.803,M 
$GPGGA,131941.000,3101.5225,N,12126.4999,E,1,00,00021.341,M 
$GPGGA,131942.000,3101.5221,N,12126.4990,E,1,00,00021.503,M 
$GPGGA,131943.000,3101.5219,N,12126.4982,E,1,00,00019.670,M 
$GPGGA,131944.000,3101.5225,N,12126.4978,E,1,00,00016.623,M 
$GPGGA,131945.000,3101.5214,N,12126.4966,E,1,00,00015.819,M 
$GPGGA,131946.000,3101.5198,N,12126.4953,E,1,00,00016.763,M 
$GPGGA,131947.000,3101.5199,N,12126.4945,E,1,00,00016.652,M 
$GPGGA,131948.000,3101.5209,N,12126.4931,E,1,00,00018.211,M 
$GPGGA,131949.000,3101.5229,N,12126.4925,E,1,00,00021.464,M 
$GPGGA,131950.000,3101.5243,N,12126.4914,E,1,00,00020.491,M 
$GPGGA,131951.000,3101.5259,N,12126.4902,E,1,00,00024.484,M 
$GPGGA,131952.000,3101.5263,N,12126.4886,E,1,00,00028.337,M 
$GPGGA,131953.000,3101.5268,N,12126.4878,E,1,00,00027.260,M 
$GPGGA,131954.000,3101.5274,N,12126.4862,E,1,00,00029.496,M 
$GPGGA,131955.000,3101.5277,N,12126.4848,E,1,00,00031.150,M 
$GPGGA,131956.000,3101.5284,N,12126.4834,E,1,00,00031.395,M 
$GPGGA,131957.000,3101.5291,N,12126.4817,E,1,00,00034.955,M 
$GPGGA,131958.000,3101.5288,N,12126.4803,E,1,00,00039.440,M 
$GPGGA,131959.000,3101.5283,N,12126.4795,E,1,00,00038.629,M 
$GPGGA,132000.000,3101.5283,N,12126.4797,E,1,00,00037.369,M 
$GPGGA,132001.000,3101.5280,N,12126.4796,E,1,00,00039.783,M 
$GPGGA,132002.000,3101.5268,N,12126.4801,E,1,00,00039.625,M 
$GPGGA,132003.000,3101.5259,N,12126.4796,E,1,00,00039.177,M 
$GPGGA,132004.000,3101.5256,N,12126.4792,E,1,00,00042.072,M 
$GPGGA,132005.000,3101.5256,N,12126.4794,E,1,00,00044.244,M 
$GPGGA,132006.000,3101.5253,N,12126.4783,E,1,00,00045.570,M 
$GPGGA,132007.000,3101.5254,N,12126.4782,E,1,00,00044.499,M 
$GPGGA,132008.000,3101.5236,N,12126.4784,E,1,00,00042.461,M 
$GPGGA,132009.000,3101.5228,N,12126.4779,E,1,00,00043.023,M 
$GPGGA,132010.000,3101.5218,N,12126.4779,E,1,00,00039.944,M 
$GPGGA,132011.000,3101.5202,N,12126.4781,E,1,00,00038.555,M 
$GPGGA,132012.000,3101.5174,N,12126.4776,E,1,00,00043.729,M 
$GPGGA,132013.000,3101.5158,N,12126.4774,E,1,00,00040.474,M 
$GPGGA,132014.000,3101.5142,N,12126.4766,E,1,00,00037.859,M 
$GPGGA,132015.000,3101.5134,N,12126.4751,E,1,00,00032.825,M 
$GPGGA,132016.000,3101.5117,N,12126.4738,E,1,00,00035.977,M 
$GPGGA,132017.000,3101.5102,N,12126.4734,E,1,00,00037.813,M 
$GPGGA,132018.000,3101.5087,N,12126.4731,E,1,00,00037.173,M 
$GPGGA,132019.000,3101.5080,N,12126.4714,E,1,00,00037.346,M 
$GPGGA,132020.000,3101.5077,N,12126.4702,E,1,00,00032.892,M 
$GPGGA,132021.000,3101.5068,N,12126.4689,E,1,00,00033.422,M 
$GPGGA,132022.000,3101.5067,N,12126.4678,E,1,00,00031.934,M 
$GPGGA,132023.000,3101.5062,N,12126.4672,E,1,00,00028.802,M 
$GPGGA,132024.000,3101.5060,N,12126.4658,E,1,00,00027.977,M 
$GPGGA,132025.000,3101.5055,N,12126.4652,E,1,00,00026.371,M 
$GPGGA,132026.000,3101.5052,N,12126.4644,E,1,00,00023.382,M 
$GPGGA,132027.000,3101.5050,N,12126.4639,E,1,00,00023.691,M 
$GPGGA,132028.000,3101.5049,N,12126.4636,E,1,00,00024.211,M 
$GPGGA,132029.000,3101.5043,N,12126.4630,E,1,00,00027.288,M 
$GPGGA,132030.000,3101.5037,N,12126.4626,E,1,00,00026.523,M 
$GPGGA,132031.000,3101.5032,N,12126.4618,E,1,00,00026.466,M 
$GPGGA,132032.000,3101.5026,N,12126.4612,E,1,00,00023.346,M 
$GPGGA,132033.000,3101.5023,N,12126.4602,E,1,00,00021.127,M 
$GPGGA,132034.000,3101.5027,N,12126.4594,E,1,00,00020.573,M 
$GPGGA,132035.000,3101.5018,N,12126.4584,E,1,00,00021.357,M 
$GPGGA,132036.000,3101.5011,N,12126.4578,E,1,00,00020.297,M 
$GPGGA,132037.000,3101.5011,N,12126.4572,E,1,00,00020.696,M 
$GPGGA,132038.000,3101.5019,N,12126.4565,E,1,00,00017.711,M 
$GPGGA,132039.000,3101.5019,N,12126.4555,E,1,00,00017.758,M 
$GPGGA,132040.000,3101.5018,N,12126.4557,E,1,00,00016.628,M 
$GPGGA,132041.000,3101.5013,N,12126.4546,E,1,00,00015.772,M 
$GPGGA,132042.000,3101.5009,N,12126.4539,E,1,00,00012.138,M 
$GPGGA,132043.000,3101.5009,N,12126.4531,E,1,00,00011.680,M 
$GPGGA,132044.000,3101.5012,N,12126.4523,E,1,00,00010.341,M 
$GPGGA,132045.000,3101.5014,N,12126.4515,E,1,00,00011.365,M 
$GPGGA,132046.000,3101.5011,N,12126.4497,E,1,00,00011.633,M 
$GPGGA,132047.000,3101.5012,N,12126.4493,E,1,00,00011.505,M 
$GPGGA,132048.000,3101.5006,N,12126.4487,E,1,00,00013.095,M 
$GPGGA,132049.000,3101.5003,N,12126.4478,E,1,00,00014.838,M 
$GPGGA,132050.000,3101.5000,N,12126.4468,E,1,00,00012.478,M 
$GPGGA,132051.000,3101.4999,N,12126.4459,E,1,00,00015.611,M 
$GPGGA,132052.000,3101.4993,N,12126.4441,E,1,00,00016.478,M 
$GPGGA,132053.000,3101.4984,N,12126.4424,E,1,00,00020.151,M 
$GPGGA,132054.000,3101.4975,N,12126.4411,E,1,00,00021.905,M 
$GPGGA,132055.000,3101.4971,N,12126.4402,E,1,00,00023.393,M 
$GPGGA,132056.000,3101.4964,N,12126.4397,E,1,00,00021.817,M 
$GPGGA,132057.000,3101.4968,N,12126.4392,E,1,00,00019.446,M 
$GPGGA,132058.000,3101.4970,N,12126.4399,E,1,00,00018.360,M 
$GPGGA,132059.000,3101.4970,N,12126.4387,E,1,00,00018.002,M 
$GPGGA,132100.000,3101.4970,N,12126.4381,E,1,00,00023.267,M 
$GPGGA,132101.000,3101.4973,N,12126.4373,E,1,00,00023.678,M 
$GPGGA,132102.000,3101.4970,N,12126.4369,E,1,00,00022.805,M 
$GPGGA,132103.000,3101.4963,N,12126.4363,E,1,00,00021.569,M 
$GPGGA,132104.000,3101.4948,N,12126.4353,E,1,00,00021.270,M 
$GPGGA,132105.000,3101.4943,N,12126.4343,E,1,00,00023.026,M 
$GPGGA,132106.000,3101.4940,N,12126.4344,E,1,00,00020.137,M 
$GPGGA,132107.000,3101.4935,N,12126.4333,E,1,00,00023.219,M 
$GPGGA,132108.000,3101.4938,N,12126.4334,E,1,00,00026.067,M 
$GPGGA,132109.000,3101.4932,N,12126.4327,E,1,00,00024.192,M 
$GPGGA,132110.000,3101.4934,N,12126.4316,E,1,00,00023.128,M 
$GPGGA,132111.000,3101.4925,N,12126.4313,E,1,00,00028.118,M 
$GPGGA,132112.000,3101.4920,N,12126.4298,E,1,00,00028.015,M 
$GPGGA,132113.000,3101.4923,N,12126.4297,E,1,00,00027.106,M 
$GPGGA,132114.000,3101.4921,N,12126.4299,E,1,00,00025.803,M 
$GPGGA,132115.000,3101.4919,N,12126.4291,E,1,00,00026.765,M 
$GPGGA,132116.000,3101.4918,N,12126.4280,E,1,00,00029.052,M 
$GPGGA,132117.000,3101.4917,N,12126.4271,E,1,00,00028.398,M 
$GPGGA,132118.000,3101.4922,N,12126.4265,E,1,00,00025.780,M 
$GPGGA,132119.000,3101.4920,N,12126.4249,E,1,00,00027.453,M 
$GPGGA,132120.000,3101.4922,N,12126.4244,E,1,00,00032.967,M 
$GPGGA,132121.000,3101.4925,N,12126.4242,E,1,00,00028.357,M 
$GPGGA,132122.000,3101.4920,N,12126.4224,E,1,00,00032.443,M 
$GPGGA,132123.000,3101.4909,N,12126.4231,E,1,00,00038.038,M 
$GPGGA,132124.000,3101.4906,N,12126.4211,E,1,00,00038.439,M 
$GPGGA,132125.000,3101.4906,N,12126.4200,E,1,00,00038.182,M 
$GPGGA,132126.000,3101.4914,N,12126.4186,E,1,00,00033.670,M 
$GPGGA,132127.000,3101.4915,N,12126.4173,E,1,00,00034.628,M 
$GPGGA,132128.000,3101.4914,N,12126.4167,E,1,00,00035.350,M 
$GPGGA,132129.000,3101.4919,N,12126.4160,E,1,00,00030.563,M 
$GPGGA,132130.000,3101.4917,N,12126.4149,E,1,00,00027.869,M 
$GPGGA,132131.000,3101.4908,N,12126.4133,E,1,00,00032.022,M 
$GPGGA,132132.000,3101.4909,N,12126.4120,E,1,00,00031.890,M 
$GPGGA,132133.000,3101.4910,N,12126.4112,E,1,00,00029.861,M 
$GPGGA,132134.000,3101.4902,N,12126.4102,E,1,00,00028.546,M 
$GPGGA,132135.000,3101.4910,N,12126.4096,E,1,00,00026.541,M 
$GPGGA,132136.000,3101.4905,N,12126.4087,E,1,00,00030.139,M 
$GPGGA,132137.000,3101.4906,N,12126.4083,E,1,00,00032.833,M 
$GPGGA,132138.000,3101.4904,N,12126.4081,E,1,00,00036.123,M 
$GPGGA,132139.000,3101.4907,N,12126.4076,E,1,00,00032.386,M 
$GPGGA,132140.000,3101.4921,N,12126.4074,E,1,00,00032.815,M 
$GPGGA,132141.000,3101.4923,N,12126.4066,E,1,00,00027.339,M 
$GPGGA,132142.000,3101.4941,N,12126.4059,E,1,00,00028.612,M 
$GPGGA,132143.000,3101.4958,N,12126.4048,E,1,00,00030.589,M 
$GPGGA,132144.000,3101.4956,N,12126.4043,E,1,00,00028.452,M 
$GPGGA,132145.000,3101.4952,N,12126.4050,E,1,00,00031.725,M 
$GPGGA,132146.000,3101.4953,N,12126.4045,E,1,00,00027.963,M 
$GPGGA,132147.000,3101.4946,N,12126.4038,E,1,00,00029.957,M 
$GPGGA,132148.000,3101.4954,N,12126.4036,E,1,00,00030.805,M 
$GPGGA,132149.000,3101.4951,N,12126.4030,E,1,00,00031.665,M 
$GPGGA,132150.000,3101.4952,N,12126.4021,E,1,00,00030.556,M 
$GPGGA,132151.000,3101.4955,N,12126.4013,E,1,00,00037.866,M 
$GPGGA,132152.000,3101.4951,N,12126.4007,E,1,00,00037.939,M 
$GPGGA,132153.000,3101.4940,N,12126.4001,E,1,00,00037.473,M 
$GPGGA,132154.000,3101.4929,N,12126.3991,E,1,00,00036.359,M 
$GPGGA,132155.000,3101.4929,N,12126.3986,E,1,00,00035.246,M 
$GPGGA,132156.000,3101.4929,N,12126.3985,E,1,00,00035.163,M 
$GPGGA,132157.000,3101.4917,N,12126.3981,E,1,00,00035.118,M 
$GPGGA,132158.000,3101.4919,N,12126.3977,E,1,00,00036.117,M 
$GPGGA,132159.000,3101.4921,N,12126.3966,E,1,00,00041.142,M 
$GPGGA,132200.000,3101.4919,N,12126.3958,E,1,00,00037.783,M 
$GPGGA,132201.000,3101.4920,N,12126.3951,E,1,00,00040.395,M 
$GPGGA,132202.000,3101.4934,N,12126.3952,E,1,00,00040.450,M 
$GPGGA,132203.000,3101.4926,N,12126.3949,E,1,00,00038.960,M 
$GPGGA,132204.000,3101.4909,N,12126.3941,E,1,00,00036.505,M 
$GPGGA,132205.000,3101.4905,N,12126.3931,E,1,00,00037.976,M 
$GPGGA,132206.000,3101.4888,N,12126.3921,E,1,00,00038.027,M 
$GPGGA,132207.000,3101.4876,N,12126.3911,E,1,00,00033.104,M 
$GPGGA,132208.000,3101.4870,N,12126.3898,E,1,00,00033.350,M 
$GPGGA,132209.000,3101.4864,N,12126.3890,E,1,00,00034.608,M 
$GPGGA,132210.000,3101.4862,N,12126.3885,E,1,00,00031.030,M 
$GPGGA,132211.000,3101.4859,N,12126.3881,E,1,00,00031.068,M 
$GPGGA,132212.000,3101.4857,N,12126.3870,E,1,00,00029.118,M 
$GPGGA,132213.000,3101.4854,N,12126.3860,E,1,00,00027.999,M 
$GPGGA,132214.000,3101.4852,N,12126.3846,E,1,00,00024.943,M 
$GPGGA,132215.000,3101.4834,N,12126.3842,E,1,00,00022.035,M 
$GPGGA,132216.000,3101.4837,N,12126.3833,E,1,00,00020.914,M 
$GPGGA,132217.000,3101.4832,N,12126.3827,E,1,00,00020.136,M 
$GPGGA,132218.000,3101.4831,N,12126.3813,E,1,00,00024.324,M 
$GPGGA,132219.000,3101.4824,N,12126.3799,E,1,00,00023.941,M 
$GPGGA,132220.000,3101.4827,N,12126.3784,E,1,00,00024.550,M 
$GPGGA,132221.000,3101.4820,N,12126.3773,E,1,00,00025.155,M 
$GPGGA,132222.000,3101.4812,N,12126.3764,E,1,00,00023.031,M 
$GPGGA,132223.000,3101.4812,N,12126.3744,E,1,00,00024.185,M 
$GPGGA,132224.000,3101.4810,N,12126.3735,E,1,00,00024.872,M 
$GPGGA,132225.000,3101.4802,N,12126.3722,E,1,00,00025.583,M 
$GPGGA,132226.000,3101.4809,N,12126.3720,E,1,00,00024.053,M 
$GPGGA,132227.000,3101.4801,N,12126.3713,E,1,00,00021.968,M 
$GPGGA,132228.000,3101.4798,N,12126.3700,E,1,00,00026.382,M 
$GPGGA,132229.000,3101.4802,N,12126.3688,E,1,00,00027.435,M 
$GPGGA,132230.000,3101.4804,N,12126.3685,E,1,00,00029.419,M 
$GPGGA,132231.000,3101.4802,N,12126.3678,E,1,00,00028.987,M 
$GPGGA,132232.000,3101.4795,N,12126.3683,E,1,00,00027.969,M 
$GPGGA,132233.000,3101.4789,N,12126.3676,E,1,00,00028.134,M 
$GPGGA,132234.000,3101.4778,N,12126.3672,E,1,00,00025.753,M 
$GPGGA,132235.000,3101.4780,N,12126.3664,E,1,00,00026.310,M 
$GPGGA,132236.000,3101.4772,N,12126.3665,E,1,00,00025.729,M 
$GPGGA,132237.000,3101.4775,N,12126.3660,E,1,00,00027.184,M 
$GPGGA,132238.000,3101.4773,N,12126.3656,E,1,00,00028.070,M 
$GPGGA,132239.000,3101.4771,N,12126.3654,E,1,00,00030.161,M 
$GPGGA,132240.000,3101.4763,N,12126.3650,E,1,00,00031.272,M 
$GPGGA,132241.000,3101.4765,N,12126.3639,E,1,00,00030.100,M 
$GPGGA,132242.000,3101.4765,N,12126.3642,E,1,00,00026.164,M 
$GPGGA,132243.000,3101.4751,N,12126.3633,E,1,00,00025.708,M 
$GPGGA,132244.000,3101.4742,N,12126.3614,E,1,00,00025.530,M 
$GPGGA,132245.000,3101.4737,N,12126.3610,E,1,00,00023.401,M 
$GPGGA,132246.000,3101.4728,N,12126.3602,E,1,00,00023.347,M 
$GPGGA,132247.000,3101.4743,N,12126.3591,E,1,00,00022.597,M 
$GPGGA,132248.000,3101.4741,N,12126.3577,E,1,00,00022.093,M 
$GPGGA,132249.000,3101.4744,N,12126.3567,E,1,00,00021.709,M 
$GPGGA,132250.000,3101.4749,N,12126.3555,E,1,00,00024.486,M 
$GPGGA,132251.000,3101.4744,N,12126.3538,E,1,00,00026.835,M 
$GPGGA,132252.000,3101.4737,N,12126.3531,E,1,00,00027.934,M 
$GPGGA,132253.000,3101.4741,N,12126.3526,E,1,00,00027.968,M 
$GPGGA,132254.000,3101.4745,N,12126.3517,E,1,00,00029.240,M 
$GPGGA,132255.000,3101.4748,N,12126.3506,E,1,00,00028.411,M 
$GPGGA,132256.000,3101.4746,N,12126.3490,E,1,00,00029.897,M 
$GPGGA,132257.000,3101.4744,N,12126.3491,E,1,00,00030.341,M 
$GPGGA,132258.000,3101.4745,N,12126.3484,E,1,00,00028.679,M 
$GPGGA,132259.000,3101.4743,N,12126.3471,E,1,00,00028.895,M 
$GPGGA,132300.000,3101.4738,N,12126.3454,E,1,00,00027.633,M 
$GPGGA,132301.000,3101.4727,N,12126.3443,E,1,00,00026.062,M 
$GPGGA,132302.000,3101.4733,N,12126.3439,E,1,00,00024.765,M 
$GPGGA,132303.000,3101.4728,N,12126.3432,E,1,00,00026.905,M 
$GPGGA,132304.000,3101.4717,N,12126.3424,E,1,00,00024.952,M 
$GPGGA,132305.000,3101.4708,N,12126.3412,E,1,00,00024.059,M 
$GPGGA,132306.000,3101.4697,N,12126.3404,E,1,00,00027.896,M 
$GPGGA,132307.000,3101.4689,N,12126.3399,E,1,00,00024.383,M 
$GPGGA,132308.000,3101.4676,N,12126.3393,E,1,00,00024.072,M 
$GPGGA,132309.000,3101.4666,N,12126.3395,E,1,00,00020.561,M 
$GPGGA,132310.000,3101.4669,N,12126.3392,E,1,00,00016.624,M 
$GPGGA,132311.000,3101.4657,N,12126.3388,E,1,00,00018.857,M 
$GPGGA,132312.000,3101.4652,N,12126.3384,E,1,00,00017.643,M 
$GPGGA,132313.000,3101.4659,N,12126.3372,E,1,00,00015.828,M 
$GPGGA,132314.000,3101.4654,N,12126.3369,E,1,00,00015.395,M 
$GPGGA,132315.000,3101.4656,N,12126.3369,E,1,00,00013.988,M 
$GPGGA,132316.000,3101.4653,N,12126.3361,E,1,00,00016.225,M 
$GPGGA,132317.000,3101.4655,N,12126.3353,E,1,00,00017.025,M 
$GPGGA,132318.000,3101.4661,N,12126.3352,E,1,00,00018.663,M 
$GPGGA,132319.000,3101.4662,N,12126.3346,E,1,00,00018.983,M 
$GPGGA,132320.000,3101.4666,N,12126.3347,E,1,00,00018.469,M 
$GPGGA,132321.000,3101.4669,N,12126.3337,E,1,00,00023.716,M 
$GPGGA,132322.000,3101.4661,N,12126.3340,E,1,00,00021.514,M 
$GPGGA,132323.000,3101.4661,N,12126.3333,E,1,00,00023.303,M 
$GPGGA,132324.000,3101.4660,N,12126.3331,E,1,00,00017.850,M 
$GPGGA,132325.000,3101.4659,N,12126.3322,E,1,00,00014.625,M 
$GPGGA,132326.000,3101.4650,N,12126.3319,E,1,00,00013.916,M 
$GPGGA,132327.000,3101.4644,N,12126.3309,E,1,00,00011.692,M 
$GPGGA,132328.000,3101.4648,N,12126.3313,E,1,00,00010.694,M 
$GPGGA,132329.000,3101.4644,N,12126.3301,E,1,00,00011.562,M 
$GPGGA,132330.000,3101.4640,N,12126.3288,E,1,00,00015.304,M 
$GPGGA,132331.000,3101.4632,N,12126.3289,E,1,00,00022.384,M 
$GPGGA,132332.000,3101.4625,N,12126.3296,E,1,00,00023.938,M 
$GPGGA,132333.000,3101.4618,N,12126.3309,E,1,00,00025.136,M 
$GPGGA,132334.000,3101.4608,N,12126.3299,E,1,00,00030.107,M 
$GPGGA,132335.000,3101.4604,N,12126.3292,E,1,00,00032.995,M 
$GPGGA,132336.000,3101.4594,N,12126.3287,E,1,00,00037.035,M 
$GPGGA,132337.000,3101.4576,N,12126.3278,E,1,00,00044.683,M 
$GPGGA,132338.000,3101.4558,N,12126.3280,E,1,00,00047.380,M 
$GPGGA,132339.000,3101.4551,N,12126.3278,E,1,00,00050.932,M 
$GPGGA,132340.000,3101.4536,N,12126.3262,E,1,00,00052.361,M 
$GPGGA,132341.000,3101.4527,N,12126.3244,E,1,00,00049.055,M 
$GPGGA,132342.000,3101.4526,N,12126.3231,E,1,00,00050.054,M 
$GPGGA,132343.000,3101.4534,N,12126.3223,E,1,00,00047.070,M 
$GPGGA,132344.000,3101.4527,N,12126.3211,E,1,00,00045.239,M 
$GPGGA,132345.000,3101.4531,N,12126.3209,E,1,00,00040.790,M 
$GPGGA,132346.000,3101.4533,N,12126.3199,E,1,00,00041.152,M 
$GPGGA,132347.000,3101.4534,N,12126.3186,E,1,00,00039.665,M 
$GPGGA,132348.000,3101.4539,N,12126.3183,E,1,00,00036.964,M 
$GPGGA,132349.000,3101.4542,N,12126.3166,E,1,00,00035.702,M 
$GPGGA,132350.000,3101.4537,N,12126.3152,E,1,00,00032.608,M 
$GPGGA,132351.000,3101.4548,N,12126.3138,E,1,00,00033.053,M 
$GPGGA,132352.000,3101.4549,N,12126.3121,E,1,00,00031.852,M 
$GPGGA,132353.000,3101.4559,N,12126.3115,E,1,00,00030.718,M 
$GPGGA,132354.000,3101.4560,N,12126.3106,E,1,00,00029.900,M 
$GPGGA,132355.000,3101.4555,N,12126.3091,E,1,00,00022.837,M 
$GPGGA,132356.000,3101.4568,N,12126.3081,E,1,00,00021.899,M 
$GPGGA,132357.000,3101.4581,N,12126.3076,E,1,00,00019.084,M 
$GPGGA,132358.000,3101.4581,N,12126.3062,E,1,00,00019.065,M 
$GPGGA,132359.000,3101.4582,N,12126.3055,E,1,00,00017.378,M 
$GPGGA,132400.000,3101.4591,N,12126.3045,E,1,00,00020.506,M 
$GPGGA,132401.000,3101.4604,N,12126.3031,E,1,00,00022.048,M 
$GPGGA,132402.000,3101.4619,N,12126.3026,E,1,00,00028.171,M 
$GPGGA,132403.000,3101.4635,N,12126.3009,E,1,00,00031.632,M 
$GPGGA,132404.000,3101.4633,N,12126.3002,E,1,00,00030.389,M 
$GPGGA,132405.000,3101.4623,N,12126.2991,E,1,00,00029.108,M 
$GPGGA,132406.000,3101.4622,N,12126.2978,E,1,00,00027.938,M 
$GPGGA,132407.000,3101.4618,N,12126.2976,E,1,00,00029.702,M 
$GPGGA,132408.000,3101.4608,N,12126.2972,E,1,00,00025.211,M 
$GPGGA,132409.000,3101.4593,N,12126.2965,E,1,00,00028.783,M 
$GPGGA,132410.000,3101.4586,N,12126.2965,E,1,00,00023.738,M 
$GPGGA,132411.000,3101.4573,N,12126.2956,E,1,00,00024.408,M 
$GPGGA,132412.000,3101.4553,N,12126.2949,E,1,00,00022.985,M 
$GPGGA,132413.000,3101.4547,N,12126.2940,E,1,00,00022.825,M 
$GPGGA,132414.000,3101.4536,N,12126.2930,E,1,00,00022.648,M 
$GPGGA,132415.000,3101.4524,N,12126.2924,E,1,00,00024.083,M 
$GPGGA,132416.000,3101.4522,N,12126.2916,E,1,00,00021.853,M 
$GPGGA,132417.000,3101.4520,N,12126.2916,E,1,00,00025.505,M 
$GPGGA,132418.000,3101.4509,N,12126.2915,E,1,00,00026.042,M 
$GPGGA,132419.000,3101.4508,N,12126.2903,E,1,00,00023.075,M 
$GPGGA,132420.000,3101.4506,N,12126.2898,E,1,00,00022.249,M 
$GPGGA,132421.000,3101.4499,N,12126.2891,E,1,00,00025.546,M 
$GPGGA,132422.000,3101.4502,N,12126.2885,E,1,00,00024.197,M 
$GPGGA,132423.000,3101.4492,N,12126.2877,E,1,00,00025.721,M 
$GPGGA,132424.000,3101.4501,N,12126.2857,E,1,00,00022.452,M 
$GPGGA,132425.000,3101.4508,N,12126.2846,E,1,00,00025.600,M 
$GPGGA,132426.000,3101.4512,N,12126.2845,E,1,00,00024.749,M 
$GPGGA,132427.000,3101.4510,N,12126.2826,E,1,00,00025.890,M 
$GPGGA,132428.000,3101.4513,N,12126.2820,E,1,00,00024.166,M 
$GPGGA,132429.000,3101.4520,N,12126.2812,E,1,00,00022.987,M 
$GPGGA,132430.000,3101.4519,N,12126.2801,E,1,00,00026.191,M 
$GPGGA,132431.000,3101.4505,N,12126.2797,E,1,00,00030.930,M 
$GPGGA,132432.000,3101.4507,N,12126.2789,E,1,00,00028.396,M 
$GPGGA,132433.000,3101.4514,N,12126.2781,E,1,00,00022.934,M 
$GPGGA,132434.000,3101.4497,N,12126.2784,E,1,00,00027.644,M 
$GPGGA,132435.000,3101.4479,N,12126.2790,E,1,00,00026.546,M 
$GPGGA,132436.000,3101.4477,N,12126.2771,E,1,00,00026.556,M 
$GPGGA,132437.000,3101.4465,N,12126.2777,E,1,00,00028.142,M 
$GPGGA,132438.000,3101.4465,N,12126.2760,E,1,00,00030.711,M 
$GPGGA,132439.000,3101.4456,N,12126.2750,E,1,00,00034.240,M 
$GPGGA,132440.000,3101.4462,N,12126.2746,E,1,00,00033.968,M 
$GPGGA,132441.000,3101.4456,N,12126.2739,E,1,00,00032.348,M 
$GPGGA,132442.000,3101.4452,N,12126.2726,E,1,00,00033.009,M 
$GPGGA,132443.000,3101.4460,N,12126.2722,E,1,00,00029.247,M 
$GPGGA,132444.000,3101.4457,N,12126.2703,E,1,00,00030.698,M 
$GPGGA,132445.000,3101.4467,N,12126.2695,E,1,00,00027.988,M 
$GPGGA,132446.000,3101.4462,N,12126.2686,E,1,00,00026.894,M 
$GPGGA,132447.000,3101.4462,N,12126.2675,E,1,00,00025.669,M 
$GPGGA,132448.000,3101.4454,N,12126.2662,E,1,00,00026.667,M 
$GPGGA,132449.000,3101.4438,N,12126.2665,E,1,00,00024.973,M 
$GPGGA,132450.000,3101.4443,N,12126.2665,E,1,00,00021.174,M 
$GPGGA,132451.000,3101.4429,N,12126.2667,E,1,00,00021.625,M 
$GPGGA,132452.000,3101.4421,N,12126.2664,E,1,00,00025.799,M 
$GPGGA,132453.000,3101.4427,N,12126.2650,E,1,00,00021.862,M 
$GPGGA,132454.000,3101.4424,N,12126.2641,E,1,00,00025.461,M 
$GPGGA,132455.000,3101.4429,N,12126.2629,E,1,00,00021.673,M 
$GPGGA,132456.000,3101.4429,N,12126.2615,E,1,00,00023.604,M 
$GPGGA,132457.000,3101.4437,N,12126.2598,E,1,00,00022.391,M 
$GPGGA,132458.000,3101.4439,N,12126.2579,E,1,00,00022.578,M 
$GPGGA,132459.000,3101.4433,N,12126.2572,E,1,00,00023.343,M 
$GPGGA,132500.000,3101.4421,N,12126.2550,E,1,00,00024.948,M 
$GPGGA,132501.000,3101.4425,N,12126.2529,E,1,00,00026.587,M 
$GPGGA,132502.000,3101.4428,N,12126.2520,E,1,00,00025.268,M 
$GPGGA,132503.000,3101.4426,N,12126.2514,E,1,00,00025.914,M 
$GPGGA,132504.000,3101.4417,N,12126.2505,E,1,00,00026.747,M 
$GPGGA,132505.000,3101.4410,N,12126.2498,E,1,00,00027.399,M 
$GPGGA,132506.000,3101.4408,N,12126.2496,E,1,00,00028.496,M 
$GPGGA,132507.000,3101.4403,N,12126.2501,E,1,00,00028.439,M 
$GPGGA,132508.000,3101.4398,N,12126.2499,E,1,00,00027.379,M 
$GPGGA,132509.000,3101.4392,N,12126.2497,E,1,00,00026.254,M 
$GPGGA,132510.000,3101.4386,N,12126.2491,E,1,00,00023.980,M 
$GPGGA,132511.000,3101.4383,N,12126.2483,E,1,00,00023.188,M 
$GPGGA,132512.000,3101.4379,N,12126.2473,E,1,00,00021.111,M 
$GPGGA,132513.000,3101.4377,N,12126.2475,E,1,00,00023.478,M 
$GPGGA,132514.000,3101.4371,N,12126.2477,E,1,00,00021.447,M 
$GPGGA,132515.000,3101.4373,N,12126.2465,E,1,00,00024.303,M 
$GPGGA,132516.000,3101.4378,N,12126.2456,E,1,00,00026.689,M 
$GPGGA,132517.000,3101.4378,N,12126.2457,E,1,00,00026.982,M 
$GPGGA,132518.000,3101.4380,N,12126.2449,E,1,00,00026.433,M 
$GPGGA,132519.000,3101.4390,N,12126.2444,E,1,00,00024.365,M 
$GPGGA,132520.000,3101.4382,N,12126.2432,E,1,00,00026.098,M 
$GPGGA,132521.000,3101.4383,N,12126.2425,E,1,00,00026.780,M 
$GPGGA,132522.000,3101.4376,N,12126.2415,E,1,00,00028.398,M 
$GPGGA,132523.000,3101.4372,N,12126.2408,E,1,00,00028.424,M 
$GPGGA,132524.000,3101.4359,N,12126.2406,E,1,00,00029.054,M 
$GPGGA,132525.000,3101.4353,N,12126.2396,E,1,00,00027.234,M 
$GPGGA,132526.000,3101.4350,N,12126.2391,E,1,00,00028.346,M 
$GPGGA,132527.000,3101.4339,N,12126.2386,E,1,00,00025.336,M 
$GPGGA,132528.000,3101.4330,N,12126.2376,E,1,00,00025.630,M 
$GPGGA,132529.000,3101.4323,N,12126.2373,E,1,00,00024.958,M 
$GPGGA,132530.000,3101.4306,N,12126.2364,E,1,00,00027.009,M 
$GPGGA,132531.000,3101.4298,N,12126.2368,E,1,00,00028.257,M 
