$GPGGA,131731.000,3101.5496,N,12126.5925,E,1,00,-0017.081,M 
$GPGGA,131732.000,3101.5504,N,12126.5921,E,1,00,-0015.216,M 
$GPGGA,131733.000,3101.5514,N,12126.5936,E,1,00,-0008.945,M 
$GPGGA,131734.000,3101.5522,N,12126.5977,E,1,00,-0000.872,M 
$GPGGA,131735.000,3101.5512,N,12126.6015,E,1,00,00010.262,M 
$GPGGA,131736.000,3101.5495,N,12126.6037,E,1,00,00021.803,M 
$GPGGA,131737.000,3101.5467,N,12126.6049,E,1,00,00031.725,M 
$GPGGA,131738.000,3101.5442,N,12126.6050,E,1,00,00044.952,M 
$GPGGA,131739.000,3101.5436,N,12126.6045,E,1,00,00046.083,M 
$GPGGA,131740.000,3101.5437,N,12126.6017,E,1,00,00047.478,M 
$GPGGA,131741.000,3101.5439,N,12126.5983,E,1,00,00048.490,M 
$GPGGA,131742.000,3101.5428,N,12126.5967,E,1,00,00047.954,M 
$GPGGA,131743.000,3101.5420,N,12126.5943,E,1,00,00038.621,M 
$GPGGA,131744.000,3101.5414,N,12126.5935,E,1,00,00040.455,M 
$GPGGA,131745.000,3101.5416,N,12126.5928,E,1,00,00039.942,M 
$GPGGA,131746.000,3101.5422,N,12126.5915,E,1,00,00036.699,M 
$GPGGA,131747.000,3101.5423,N,12126.5901,E,1,00,00035.870,M 
$GPGGA,131748.000,3101.5423,N,12126.5886,E,1,00,00031.655,M 
$GPGGA,131749.000,3101.5414,N,12126.5881,E,1,00,00031.864,M 
$GPGGA,131750.000,3101.5417,N,12126.5871,E,1,00,00029.341,M 
$GPGGA,131751.000,3101.5416,N,12126.5856,E,1,00,00035.626,M 
$GPGGA,131752.000,3101.5427,N,12126.5843,E,1,00,00032.638,M 
$GPGGA,131753.000,3101.5423,N,12126.5827,E,1,00,00033.082,M 
$GPGGA,131754.000,3101.5428,N,12126.5808,E,1,00,00031.478,M 
$GPGGA,131755.000,3101.5419,N,12126.5789,E,1,00,00031.984,M 
$GPGGA,131756.000,3101.5418,N,12126.5774,E,1,00,00030.366,M 
$GPGGA,131757.000,3101.5412,N,12126.5759,E,1,00,00028.327,M 
$GPGGA,131758.000,3101.5410,N,12126.5739,E,1,00,00034.988,M 
$GPGGA,131759.000,3101.5415,N,12126.5727,E,1,00,00037.472,M 
$GPGGA,131800.000,3101.5407,N,12126.5713,E,1,00,00038.865,M 
$GPGGA,131801.000,3101.5418,N,12126.5694,E,1,00,00032.520,M 
$GPGGA,131802.000,3101.5417,N,12126.5688,E,1,00,00034.117,M 
$GPGGA,131803.000,3101.5418,N,12126.5677,E,1,00,00036.491,M 
$GPGGA,131804.000,3101.5415,N,12126.5673,E,1,00,00035.154,M 
$GPGGA,131805.000,3101.5398,N,12126.5670,E,1,00,00033.559,M 
$GPGGA,131806.000,3101.5396,N,12126.5668,E,1,00,00028.461,M 
$GPGGA,131807.000,3101.5401,N,12126.5670,E,1,00,00027.444,M 
$GPGGA,131808.000,3101.5403,N,12126.5662,E,1,00,00024.371,M 
$GPGGA,131809.000,3101.5413,N,12126.5655,E,1,00,00025.334,M 
$GPGGA,131810.000,3101.5411,N,12126.5645,E,1,00,00027.119,M 
$GPGGA,131811.000,3101.5408,N,12126.5640,E,1,00,00027.716,M 
$GPGGA,131812.000,3101.5403,N,12126.5632,E,1,00,00026.536,M 
$GPGGA,131813.000,3101.5392,N,12126.5643,E,1,00,00026.524,M 
$GPGGA,131814.000,3101.5393,N,12126.5642,E,1,00,00024.194,M 
$GPGGA,131815.000,3101.5383,N,12126.5633,E,1,00,00024.651,M 
$GPGGA,131816.000,3101.5384,N,12126.5625,E,1,00,00020.687,M 
$GPGGA,131817.000,3101.5382,N,12126.5613,E,1,00,00020.777,M 
$GPGGA,131818.000,3101.5374,N,12126.5608,E,1,00,00020.766,M 
$GPGGA,131819.000,3101.5365,N,12126.5603,E,1,00,00019.430,M 
$GPGGA,131820.000,3101.5364,N,12126.5583,E,1,00,00017.156,M 
$GPGGA,131821.000,3101.5373,N,12126.5577,E,1,00,00017.250,M 
$GPGGA,131822.000,3101.5368,N,12126.5563,E,1,00,00017.672,M 
$GPGGA,131823.000,3101.5375,N,12126.5556,E,1,00,00016.731,M 
$GPGGA,131824.000,3101.5375,N,12126.5539,E,1,00,00018.826,M 
$GPGGA,131825.000,3101.5363,N,12126.5533,E,1,00,00017.523,M 
$GPGGA,131826.000,3101.5358,N,12126.5531,E,1,00,00014.696,M 
$GPGGA,131827.000,3101.5348,N,12126.5531,E,1,00,00014.887,M 
$GPGGA,131828.000,3101.5346,N,12126.5524,E,1,00,00015.812,M 
$GPGGA,131829.000,3101.5340,N,12126.5520,E,1,00,00015.038,M 
$GPGGA,131830.000,3101.5355,N,12126.5511,E,1,00,00016.255,M 
$GPGGA,131831.000,3101.5353,N,12126.5515,E,1,00,00017.432,M 
$GPGGA,131832.000,3101.5340,N,12126.5510,E,1,00,00015.644,M 
$GPGGA,131833.000,3101.5345,N,12126.5513,E,1,00,00014.639,M 
$GPGGA,131834.000,3101.5355,N,12126.5510,E,1,00,00015.036,M 
$GPGGA,131835.000,3101.5362,N,12126.5509,E,1,00,00013.541,M 
$GPGGA,131836.000,3101.5362,N,12126.5506,E,1,00,00015.823,M 
$GPGGA,131837.000,3101.5350,N,12126.5504,E,1,00,00015.739,M 
$GPGGA,131838.000,3101.5345,N,12126.5503,E,1,00,00014.575,M 
$GPGGA,131839.000,3101.5345,N,12126.5500,E,1,00,00013.262,M 
$GPGGA,131840.000,3101.5344,N,12126.5493,E,1,00,00014.099,M 
$GPGGA,131841.000,3101.5345,N,12126.5491,E,1,00,00011.914,M 
$GPGGA,131842.000,3101.5352,N,12126.5491,E,1,00,00013.051,M 
$GPGGA,131843.000,3101.5347,N,12126.5472,E,1,00,00012.002,M 
$GPGGA,131844.000,3101.5338,N,12126.5461,E,1,00,00013.486,M 
$GPGGA,131845.000,3101.5341,N,12126.5453,E,1,00,00013.674,M 
$GPGGA,131846.000,3101.5344,N,12126.5442,E,1,00,00015.545,M 
$GPGGA,131847.000,3101.5341,N,12126.5422,E,1,00,00012.765,M 
$GPGGA,131848.000,3101.5337,N,12126.5410,E,1,00,00010.356,M 
$GPGGA,131849.000,3101.5335,N,12126.5398,E,1,00,00012.401,M 
$GPGGA,131850.000,3101.5335,N,12126.5390,E,1,00,00013.445,M 
$GPGGA,131851.000,3101.5334,N,12126.5381,E,1,00,00010.210,M 
$GPGGA,131852.000,3101.5330,N,12126.5367,E,1,00,00014.749,M 
$GPGGA,131853.000,3101.5331,N,12126.5351,E,1,00,00012.642,M 
$GPGGA,131854.000,3101.5327,N,12126.5344,E,1,00,00016.140,M 
$GPGGA,131855.000,3101.5327,N,12126.5334,E,1,00,00020.600,M 
$GPGGA,131856.000,3101.5326,N,12126.5326,E,1,00,00019.509,M 
$GPGGA,131857.000,3101.5330,N,12126.5314,E,1,00,00023.160,M 
$GPGGA,131858.000,3101.5336,N,12126.5307,E,1,00,00023.900,M 
$GPGGA,131859.000,3101.5329,N,12126.5292,E,1,00,00026.996,M 
$GPGGA,131900.000,3101.5329,N,12126.5290,E,1,00,00026.741,M 
$GPGGA,131901.000,3101.5333,N,12126.5281,E,1,00,00027.148,M 
$GPGGA,131902.000,3101.5340,N,12126.5277,E,1,00,00026.743,M 
$GPGGA,131903.000,3101.5341,N,12126.5267,E,1,00,00028.613,M 
$GPGGA,131904.000,3101.5344,N,12126.5268,E,1,00,00029.334,M 
$GPGGA,131905.000,3101.5339,N,12126.5262,E,1,00,00032.126,M 
$GPGGA,131906.000,3101.5332,N,12126.5255,E,1,00,00037.397,M 
$GPGGA,131907.000,3101.5329,N,12126.5264,E,1,00,00037.445,M 
$GPGGA,131908.000,3101.5327,N,12126.5257,E,1,00,00035.852,M 
$GPGGA,131909.000,3101.5328,N,12126.5263,E,1,00,00036.647,M 
$GPGGA,131910.000,3101.5318,N,12126.5254,E,1,00,00035.792,M 
$GPGGA,131911.000,3101.5305,N,12126.5247,E,1,00,00031.992,M 
$GPGGA,131912.000,3101.5298,N,12126.5236,E,1,00,00029.369,M 
$GPGGA,131913.000,3101.5292,N,12126.5220,E,1,00,00028.949,M 
$GPGGA,131914.000,3101.5282,N,12126.5210,E,1,00,00029.196,M 
$GPGGA,131915.000,3101.5266,N,12126.5197,E,1,00,00028.119,M 
$GPGGA,131916.000,3101.5261,N,12126.5190,E,1,00,00029.833,M 
$GPGGA,131917.000,3101.5259,N,12126.5181,E,1,00,00028.817,M 
$GPGGA,131918.000,3101.5240,N,12126.5166,E,1,00,00027.316,M 
$GPGGA,131919.000,3101.5234,N,12126.5162,E,1,00,00027.454,M 
$GPGGA,131920.000,3101.5235,N,12126.5150,E,1,00,00027.898,M 
$GPGGA,131921.000,3101.5232,N,12126.5146,E,1,00,00028.948,M 
$GPGGA,131922.000,3101.5238,N,12126.5138,E,1,00,00027.767,M 
$GPGGA,131923.000,3101.5236,N,12126.5131,E,1,00,00028.617,M 
$GPGGA,131924.000,3101.5235,N,12126.5126,E,1,00,00026.624,M 
$GPGGA,131925.000,3101.5239,N,12126.5126,E,1,00,00026.164,M 
$GPGGA,131926.000,3101.5228,N,12126.5117,E,1,00,00025.685,M 
$GPGGA,131927.000,3101.5225,N,12126.5112,E,1,00,00024.708,M 
$GPGGA,131928.000,3101.5218,N,12126.5106,E,1,00,00024.469,M 
$GPGGA,131929.000,3101.5218,N,12126.5093,E,1,00,00025.240,M 
$GPGGA,131930.000,3101.5219,N,12126.5084,E,1,00,00023.742,M 
$GPGGA,131931.000,3101.5233,N,12126.5087,E,1,00,00022.723,M 
$GPGGA,131932.000,3101.5228,N,12126.5077,E,1,00,00020.078,M 
$GPGGA,131933.000,3101.5228,N,12126.5065,E,1,00,00019.416,M 
$GPGGA,131934.000,3101.5231,N,12126.5060,E,1,00,00020.563,M 
$GPGGA,131935.000,3101.5225,N,12126.5053,E,1,00,00020.008,M 
$GPGGA,131936.000,3101.5221,N,12126.5044,E,1,00,00020.929,M 
$GPGGA,131937.000,3101.5221,N,12126.5030,E,1,00,00018.315,M 
$GPGGA,131938.000,3101.5211,N,12126.5022,E,1,00,00019.154,M 
$GPGGA,131939.000,3101.5220,N,12126.5018,E,1,00,00018.378,M 
$GPGGA,131940.000,3101.5216,N,12126.5002,E,1,00,00020.508,M 
$GPGGA,131941.000,3101.5226,N,12126.5000,E,1,00,00021.050,M 
$GPGGA,131942.000,3101.5222,N,12126.4991,E,1,00,00021.203,M 
$GPGGA,131943.000,3101.5219,N,12126.4983,E,1,00,00019.364,M 
$GPGGA,131944.000,3101.5226,N,12126.4980,E,1,00,00016.323,M 
$GPGGA,131945.000,3101.5214,N,12126.4967,E,1,00,00015.542,M 
$GPGGA,131946.000,3101.5199,N,12126.4954,E,1,00,00016.518,M 
$GPGGA,131947.000,3101.5199,N,12126.4945,E,1,00,00016.440,M 
$GPGGA,131948.000,3101.5209,N,12126.4931,E,1,00,00018.037,M 
$GPGGA,131949.000,3101.5229,N,12126.4925,E,1,00,00021.346,M 
$GPGGA,131950.000,3101.5243,N,12126.4914,E,1,00,00020.442,M 
$GPGGA,131951.000,3101.5259,N,12126.4902,E,1,00,00024.496,M 
$GPGGA,131952.000,3101.5262,N,12126.4884,E,1,00,00028.400,M 
$GPGGA,131953.000,3101.5267,N,12126.4877,E,1,00,00027.376,M 
$GPGGA,131954.000,3101.5274,N,12126.4860,E,1,00,00029.677,M 
$GPGGA,131955.000,3101.5277,N,12126.4846,E,1,00,00031.410,M 
$GPGGA,131956.000,3101.5284,N,12126.4832,E,1,00,00031.736,M 
$GPGGA,131957.000,3101.5290,N,12126.4815,E,1,00,00035.381,M 
$GPGGA,131958.000,3101.5287,N,12126.4800,E,1,00,00039.938,M 
$GPGGA,131959.000,3101.5282,N,12126.4792,E,1,00,00039.186,M 
$GPGGA,132000.000,3101.5281,N,12126.4794,E,1,00,00037.972,M 
$GPGGA,132001.000,3101.5279,N,12126.4793,E,1,00,00040.418,M 
$GPGGA,132002.000,3101.5267,N,12126.4798,E,1,00,00040.288,M 
$GPGGA,132003.000,3101.5258,N,12126.4793,E,1,00,00039.868,M 
$GPGGA,132004.000,3101.5255,N,12126.4789,E,1,00,00042.794,M 
$GPGGA,132005.000,3101.5255,N,12126.4791,E,1,00,00044.993,M 
$GPGGA,132006.000,3101.5252,N,12126.4780,E,1,00,00046.321,M 
$GPGGA,132007.000,3101.5253,N,12126.4779,E,1,00,00045.228,M 
$GPGGA,132008.000,3101.5236,N,12126.4782,E,1,00,00043.178,M 
$GPGGA,132009.000,3101.5228,N,12126.4777,E,1,00,00043.730,M 
$GPGGA,132010.000,3101.5218,N,12126.4778,E,1,00,00040.618,M 
$GPGGA,132011.000,3101.5202,N,12126.4780,E,1,00,00039.177,M 
$GPGGA,132012.000,3101.5174,N,12126.4775,E,1,00,00044.309,M 
$GPGGA,132013.000,3101.5158,N,12126.4773,E,1,00,00041.028,M 
$GPGGA,132014.000,3101.5142,N,12126.4765,E,1,00,00038.381,M 
$GPGGA,132015.000,3101.5135,N,12126.4750,E,1,00,00033.312,M 
$GPGGA,132016.000,3101.5117,N,12126.4737,E,1,00,00036.432,M 
$GPGGA,132017.000,3101.5102,N,12126.4733,E,1,00,00038.252,M 
$GPGGA,132018.000,3101.5087,N,12126.4731,E,1,00,00037.612,M 
$GPGGA,132019.000,3101.5080,N,12126.4713,E,1,00,00037.773,M 
$GPGGA,132020.000,3101.5077,N,12126.4701,E,1,00,00033.288,M 
$GPGGA,132021.000,3101.5069,N,12126.4688,E,1,00,00033.783,M 
$GPGGA,132022.000,3101.5067,N,12126.4677,E,1,00,00032.273,M 
$GPGGA,132023.000,3101.5063,N,12126.4671,E,1,00,00029.127,M 
$GPGGA,132024.000,3101.5060,N,12126.4657,E,1,00,00028.280,M 
$GPGGA,132025.000,3101.5055,N,12126.4651,E,1,00,00026.632,M 
$GPGGA,132026.000,3101.5052,N,12126.4644,E,1,00,00023.598,M 
$GPGGA,132027.000,3101.5051,N,12126.4639,E,1,00,00023.870,M 
$GPGGA,132028.000,3101.5049,N,12126.4636,E,1,00,00024.349,M 
$GPGGA,132029.000,3101.5043,N,12126.4630,E,1,00,00027.375,M 
$GPGGA,132030.000,3101.5037,N,12126.4627,E,1,00,00026.551,M 
$GPGGA,132031.000,3101.5032,N,12126.4618,E,1,00,00026.438,M 
$GPGGA,132032.000,3101.5025,N,12126.4613,E,1,00,00023.278,M 
$GPGGA,132033.000,3101.5022,N,12126.4603,E,1,00,00021.030,M 
$GPGGA,132034.000,3101.5026,N,12126.4595,E,1,00,00020.447,M 
$GPGGA,132035.000,3101.5017,N,12126.4585,E,1,00,00021.190,M 
$GPGGA,132036.000,3101.5010,N,12126.4579,E,1,00,00020.080,M 
$GPGGA,132037.000,3101.5009,N,12126.4573,E,1,00,00020.440,M 
$GPGGA,132038.000,3101.5018,N,12126.4567,E,1,00,00017.419,M 
$GPGGA,132039.000,3101.5017,N,12126.4556,E,1,00,00017.429,M 
$GPGGA,132040.000,3101.5017,N,12126.4559,E,1,00,00016.266,M 
$GPGGA,132041.000,3101.5012,N,12126.4548,E,1,00,00015.383,M 
$GPGGA,132042.000,3101.5008,N,12126.4541,E,1,00,00011.742,M 
$GPGGA,132043.000,3101.5007,N,12126.4534,E,1,00,00011.293,M 
$GPGGA,132044.000,3101.5011,N,12126.4525,E,1,00,00009.957,M 
$GPGGA,132045.000,3101.5013,N,12126.4517,E,1,00,00010.965,M 
$GPGGA,132046.000,3101.5010,N,12126.4500,E,1,00,00011.204,M 
$GPGGA,132047.000,3101.5011,N,12126.4496,E,1,00,00011.061,M 
$GPGGA,132048.000,3101.5005,N,12126.4489,E,1,00,00012.655,M 
$GPGGA,132049.000,3101.5002,N,12126.4480,E,1,00,00014.403,M 
$GPGGA,132050.000,3101.4999,N,12126.4469,E,1,00,00012.055,M 
$GPGGA,132051.000,3101.4998,N,12126.4460,E,1,00,00015.226,M 
$GPGGA,132052.000,3101.4992,N,12126.4442,E,1,00,00016.153,M 
$GPGGA,132053.000,3101.4983,N,12126.4425,E,1,00,00019.891,M 
$GPGGA,132054.000,3101.4974,N,12126.4412,E,1,00,00021.698,M 
$GPGGA,132055.000,3101.4969,N,12126.4402,E,1,00,00023.240,M 
$GPGGA,132056.000,3101.4963,N,12126.4397,E,1,00,00021.727,M 
$GPGGA,132057.000,3101.4966,N,12126.4392,E,1,00,00019.419,M 
$GPGGA,132058.000,3101.4968,N,12126.4399,E,1,00,00018.376,M 
$GPGGA,132059.000,3101.4968,N,12126.4386,E,1,00,00018.052,M 
$GPGGA,132100.000,3101.4968,N,12126.4380,E,1,00,00023.367,M 
$GPGGA,132101.000,3101.4970,N,12126.4372,E,1,00,00023.841,M 
$GPGGA,132102.000,3101.4967,N,12126.4367,E,1,00,00023.004,M 
$GPGGA,132103.000,3101.4961,N,12126.4362,E,1,00,00021.776,M 
$GPGGA,132104.000,3101.4946,N,12126.4352,E,1,00,00021.487,M 
$GPGGA,132105.000,3101.4940,N,12126.4342,E,1,00,00023.253,M 
$GPGGA,132106.000,3101.4938,N,12126.4343,E,1,00,00020.347,M 
$GPGGA,132107.000,3101.4933,N,12126.4332,E,1,00,00023.392,M 
$GPGGA,132108.000,3101.4936,N,12126.4334,E,1,00,00026.218,M 
$GPGGA,132109.000,3101.4929,N,12126.4327,E,1,00,00024.357,M 
$GPGGA,132110.000,3101.4932,N,12126.4316,E,1,00,00023.319,M 
$GPGGA,132111.000,3101.4923,N,12126.4313,E,1,00,00028.331,M 
$GPGGA,132112.000,3101.4918,N,12126.4297,E,1,00,00028.246,M 
$GPGGA,132113.000,3101.4922,N,12126.4296,E,1,00,00027.360,M 
$GPGGA,132114.000,3101.4920,N,12126.4298,E,1,00,00026.100,M 
$GPGGA,132115.000,3101.4917,N,12126.4289,E,1,00,00027.105,M 
$GPGGA,132116.000,3101.4916,N,12126.4279,E,1,00,00029.421,M 
$GPGGA,132117.000,3101.4916,N,12126.4270,E,1,00,00028.791,M 
$GPGGA,132118.000,3101.4921,N,12126.4263,E,1,00,00026.206,M 
$GPGGA,132119.000,3101.4919,N,12126.4247,E,1,00,00027.905,M 
$GPGGA,132120.000,3101.4921,N,12126.4242,E,1,00,00033.455,M 
$GPGGA,132121.000,3101.4925,N,12126.4240,E,1,00,00028.873,M 
$GPGGA,132122.000,3101.4920,N,12126.4223,E,1,00,00032.973,M 
$GPGGA,132123.000,3101.4909,N,12126.4230,E,1,00,00038.584,M 
$GPGGA,132124.000,3101.4906,N,12126.4210,E,1,00,00039.015,M 
$GPGGA,132125.000,3101.4906,N,12126.4199,E,1,00,00038.753,M 
$GPGGA,132126.000,3101.4914,N,12126.4185,E,1,00,00034.213,M 
$GPGGA,132127.000,3101.4915,N,12126.4172,E,1,00,00035.162,M 
$GPGGA,132128.000,3101.4915,N,12126.4166,E,1,00,00035.919,M 
$GPGGA,132129.000,3101.4920,N,12126.4159,E,1,00,00031.175,M 
$GPGGA,132130.000,3101.4918,N,12126.4147,E,1,00,00028.511,M 
$GPGGA,132131.000,3101.4908,N,12126.4131,E,1,00,00032.699,M 
$GPGGA,132132.000,3101.4909,N,12126.4118,E,1,00,00032.580,M 
$GPGGA,132133.000,3101.4910,N,12126.4110,E,1,00,00030.538,M 
$GPGGA,132134.000,3101.4903,N,12126.4100,E,1,00,00029.232,M 
$GPGGA,132135.000,3101.4911,N,12126.4094,E,1,00,00027.232,M 
$GPGGA,132136.000,3101.4905,N,12126.4085,E,1,00,00030.834,M 
$GPGGA,132137.000,3101.4907,N,12126.4082,E,1,00,00033.513,M 
$GPGGA,132138.000,3101.4905,N,12126.4080,E,1,00,00036.770,M 
$GPGGA,132139.000,3101.4907,N,12126.4075,E,1,00,00032.973,M 
$GPGGA,132140.000,3101.4921,N,12126.4073,E,1,00,00033.327,M 
$GPGGA,132141.000,3101.4923,N,12126.4065,E,1,00,00027.796,M 
$GPGGA,132142.000,3101.4940,N,12126.4058,E,1,00,00029.035,M 
$GPGGA,132143.000,3101.4957,N,12126.4047,E,1,00,00030.996,M 
$GPGGA,132144.000,3101.4955,N,12126.4042,E,1,00,00028.828,M 
$GPGGA,132145.000,3101.4951,N,12126.4049,E,1,00,00032.078,M 
$GPGGA,132146.000,3101.4952,N,12126.4045,E,1,00,00028.318,M 
$GPGGA,132147.000,3101.4946,N,12126.4037,E,1,00,00030.312,M 
$GPGGA,132148.000,3101.4953,N,12126.4035,E,1,00,00031.139,M 
$GPGGA,132149.000,3101.4950,N,12126.4029,E,1,00,00031.964,M 
$GPGGA,132150.000,3101.4952,N,12126.4020,E,1,00,00030.812,M 
$GPGGA,132151.000,3101.4955,N,12126.4013,E,1,00,00038.094,M 
$GPGGA,132152.000,3101.4951,N,12126.4007,E,1,00,00038.158,M 
$GPGGA,132153.000,3101.4940,N,12126.4001,E,1,00,00037.665,M 
$GPGGA,132154.000,3101.4930,N,12126.3991,E,1,00,00036.503,M 
$GPGGA,132155.000,3101.4929,N,12126.3987,E,1,00,00035.347,M 
$GPGGA,132156.000,3101.4929,N,12126.3986,E,1,00,00035.242,M 
$GPGGA,132157.000,3101.4918,N,12126.3982,E,1,00,00035.179,M 
$GPGGA,132158.000,3101.4919,N,12126.3978,E,1,00,00036.145,M 
$GPGGA,132159.000,3101.4922,N,12126.3967,E,1,00,00041.132,M 
$GPGGA,132200.000,3101.4919,N,12126.3959,E,1,00,00037.733,M 
$GPGGA,132201.000,3101.4920,N,12126.3953,E,1,00,00040.324,M 
$GPGGA,132202.000,3101.4934,N,12126.3954,E,1,00,00040.353,M 
$GPGGA,132203.000,3101.4926,N,12126.3950,E,1,00,00038.817,M 
$GPGGA,132204.000,3101.4909,N,12126.3942,E,1,00,00036.306,M 
$GPGGA,132205.000,3101.4905,N,12126.3933,E,1,00,00037.736,M 
$GPGGA,132206.000,3101.4888,N,12126.3923,E,1,00,00037.762,M 
$GPGGA,132207.000,3101.4877,N,12126.3913,E,1,00,00032.811,M 
$GPGGA,132208.000,3101.4870,N,12126.3900,E,1,00,00033.019,M 
$GPGGA,132209.000,3101.4865,N,12126.3892,E,1,00,00034.247,M 
$GPGGA,132210.000,3101.4863,N,12126.3887,E,1,00,00030.645,M 
$GPGGA,132211.000,3101.4860,N,12126.3882,E,1,00,00030.661,M 
$GPGGA,132212.000,3101.4858,N,12126.3872,E,1,00,00028.673,M 
$GPGGA,132213.000,3101.4856,N,12126.3862,E,1,00,00027.515,M 
$GPGGA,132214.000,3101.4854,N,12126.3847,E,1,00,00024.446,M 
$GPGGA,132215.000,3101.4836,N,12126.3843,E,1,00,00021.546,M 
$GPGGA,132216.000,3101.4839,N,12126.3834,E,1,00,00020.452,M 
$GPGGA,132217.000,3101.4834,N,12126.3827,E,1,00,00019.710,M 
$GPGGA,132218.000,3101.4833,N,12126.3812,E,1,00,00023.950,M 
$GPGGA,132219.000,3101.4826,N,12126.3799,E,1,00,00023.650,M 
$GPGGA,132220.000,3101.4828,N,12126.3783,E,1,00,00024.348,M 
$GPGGA,132221.000,3101.4821,N,12126.3772,E,1,00,00025.027,M 
$GPGGA,132222.000,3101.4813,N,12126.3762,E,1,00,00022.969,M 
$GPGGA,132223.000,3101.4814,N,12126.3742,E,1,00,00024.191,M 
$GPGGA,132224.000,3101.4812,N,12126.3732,E,1,00,00024.936,M 
$GPGGA,132225.000,3101.4803,N,12126.3720,E,1,00,00025.681,M 
$GPGGA,132226.000,3101.4810,N,12126.3717,E,1,00,00024.166,M 
$GPGGA,132227.000,3101.4802,N,12126.3711,E,1,00,00022.099,M 
$GPGGA,132228.000,3101.4799,N,12126.3698,E,1,00,00026.513,M 
$GPGGA,132229.000,3101.4803,N,12126.3686,E,1,00,00027.543,M 
$GPGGA,132230.000,3101.4804,N,12126.3683,E,1,00,00029.501,M 
$GPGGA,132231.000,3101.4803,N,12126.3677,E,1,00,00029.061,M 
$GPGGA,132232.000,3101.4795,N,12126.3682,E,1,00,00028.038,M 
$GPGGA,132233.000,3101.4789,N,12126.3675,E,1,00,00028.181,M 
$GPGGA,132234.000,3101.4778,N,12126.3671,E,1,00,00025.765,M 
$GPGGA,132235.000,3101.4780,N,12126.3664,E,1,00,00026.294,M 
$GPGGA,132236.000,3101.4772,N,12126.3665,E,1,00,00025.694,M 
$GPGGA,132237.000,3101.4775,N,12126.3660,E,1,00,00027.119,M 
$GPGGA,132238.000,3101.4773,N,12126.3657,E,1,00,00027.964,M 
$GPGGA,132239.000,3101.4771,N,12126.3655,E,1,00,00030.027,M 
$GPGGA,132240.000,3101.4763,N,12126.3651,E,1,00,00031.122,M 
$GPGGA,132241.000,3101.4765,N,12126.3640,E,1,00,00029.920,M 
$GPGGA,132242.000,3101.4766,N,12126.3643,E,1,00,00025.937,M 
$GPGGA,132243.000,3101.4752,N,12126.3634,E,1,00,00025.438,M 
$GPGGA,132244.000,3101.4743,N,12126.3616,E,1,00,00025.251,M 
$GPGGA,132245.000,3101.4737,N,12126.3612,E,1,00,00023.134,M 
$GPGGA,132246.000,3101.4729,N,12126.3603,E,1,00,00023.095,M 
$GPGGA,132247.000,3101.4744,N,12126.3591,E,1,00,00022.364,M 
$GPGGA,132248.000,3101.4741,N,12126.3577,E,1,00,00021.900,M 
$GPGGA,132249.000,3101.4744,N,12126.3567,E,1,00,00021.566,M 
$GPGGA,132250.000,3101.4750,N,12126.3555,E,1,00,00024.394,M 
$GPGGA,132251.000,3101.4745,N,12126.3538,E,1,00,00026.782,M 
$GPGGA,132252.000,3101.4738,N,12126.3530,E,1,00,00027.921,M 
$GPGGA,132253.000,3101.4741,N,12126.3525,E,1,00,00027.994,M 
$GPGGA,132254.000,3101.4745,N,12126.3516,E,1,00,00029.305,M 
$GPGGA,132255.000,3101.4748,N,12126.3504,E,1,00,00028.517,M 
$GPGGA,132256.000,3101.4746,N,12126.3488,E,1,00,00030.019,M 
$GPGGA,132257.000,3101.4744,N,12126.3489,E,1,00,00030.498,M 
$GPGGA,132258.000,3101.4745,N,12126.3482,E,1,00,00028.892,M 
$GPGGA,132259.000,3101.4742,N,12126.3468,E,1,00,00029.160,M 
$GPGGA,132300.000,3101.4737,N,12126.3451,E,1,00,00027.933,M 
$GPGGA,132301.000,3101.4726,N,12126.3441,E,1,00,00026.377,M 
$GPGGA,132302.000,3101.4733,N,12126.3437,E,1,00,00025.085,M 
$GPGGA,132303.000,3101.4727,N,12126.3430,E,1,00,00027.236,M 
$GPGGA,132304.000,3101.4716,N,12126.3422,E,1,00,00025.295,M 
$GPGGA,132305.000,3101.4707,N,12126.3410,E,1,00,00024.409,M 
$GPGGA,132306.000,3101.4696,N,12126.3402,E,1,00,00028.265,M 
$GPGGA,132307.000,3101.4687,N,12126.3397,E,1,00,00024.774,M 
$GPGGA,132308.000,3101.4675,N,12126.3392,E,1,00,00024.453,M 
$GPGGA,132309.000,3101.4665,N,12126.3394,E,1,00,00020.925,M 
$GPGGA,132310.000,3101.4668,N,12126.3391,E,1,00,00016.988,M 
$GPGGA,132311.000,3101.4656,N,12126.3387,E,1,00,00019.213,M 
$GPGGA,132312.000,3101.4651,N,12126.3382,E,1,00,00017.953,M 
$GPGGA,132313.000,3101.4657,N,12126.3371,E,1,00,00016.086,M 
$GPGGA,132314.000,3101.4653,N,12126.3368,E,1,00,00015.614,M 
$GPGGA,132315.000,3101.4654,N,12126.3368,E,1,00,00014.160,M 
$GPGGA,132316.000,3101.4652,N,12126.3361,E,1,00,00016.342,M 
$GPGGA,132317.000,3101.4654,N,12126.3353,E,1,00,00017.094,M 
$GPGGA,132318.000,3101.4660,N,12126.3353,E,1,00,00018.698,M 
$GPGGA,132319.000,3101.4661,N,12126.3347,E,1,00,00018.988,M 
$GPGGA,132320.000,3101.4665,N,12126.3348,E,1,00,00018.419,M 
$GPGGA,132321.000,3101.4668,N,12126.3338,E,1,00,00023.603,M 
$GPGGA,132322.000,3101.4661,N,12126.3342,E,1,00,00021.348,M 
$GPGGA,132323.000,3101.4660,N,12126.3335,E,1,00,00023.087,M 
$GPGGA,132324.000,3101.4660,N,12126.3333,E,1,00,00017.580,M 
$GPGGA,132325.000,3101.4659,N,12126.3324,E,1,00,00014.289,M 
$GPGGA,132326.000,3101.4650,N,12126.3321,E,1,00,00013.528,M 
$GPGGA,132327.000,3101.4644,N,12126.3312,E,1,00,00011.262,M 
$GPGGA,132328.000,3101.4648,N,12126.3315,E,1,00,00010.240,M 
$GPGGA,132329.000,3101.4644,N,12126.3303,E,1,00,00011.071,M 
$GPGGA,132330.000,3101.4640,N,12126.3291,E,1,00,00014.780,M 
$GPGGA,132331.000,3101.4633,N,12126.3291,E,1,00,00021.840,M 
$GPGGA,132332.000,3101.4626,N,12126.3298,E,1,00,00023.380,M 
$GPGGA,132333.000,3101.4619,N,12126.3311,E,1,00,00024.585,M 
$GPGGA,132334.000,3101.4609,N,12126.3300,E,1,00,00029.572,M 
$GPGGA,132335.000,3101.4605,N,12126.3293,E,1,00,00032.498,M 
$GPGGA,132336.000,3101.4595,N,12126.3288,E,1,00,00036.595,M 
$GPGGA,132337.000,3101.4577,N,12126.3278,E,1,00,00044.293,M 
$GPGGA,132338.000,3101.4559,N,12126.3280,E,1,00,00047.048,M 
$GPGGA,132339.000,3101.4551,N,12126.3277,E,1,00,00050.665,M 
$GPGGA,132340.000,3101.4536,N,12126.3260,E,1,00,00052.135,M 
$GPGGA,132341.000,3101.4527,N,12126.3242,E,1,00,00048.859,M 
$GPGGA,132342.000,3101.4526,N,12126.3229,E,1,00,00049.882,M 
$GPGGA,132343.000,3101.4533,N,12126.3222,E,1,00,00046.909,M 
$GPGGA,132344.000,3101.4526,N,12126.3211,E,1,00,00045.089,M 
$GPGGA,132345.000,3101.4530,N,12126.3208,E,1,00,00040.649,M 
$GPGGA,132346.000,3101.4532,N,12126.3199,E,1,00,00041.002,M 
$GPGGA,132347.000,3101.4533,N,12126.3186,E,1,00,00039.479,M 
$GPGGA,132348.000,3101.4538,N,12126.3184,E,1,00,00036.728,M 
$GPGGA,132349.000,3101.4541,N,12126.3168,E,1,00,00035.420,M 
$GPGGA,132350.000,3101.4537,N,12126.3153,E,1,00,00032.273,M 
$GPGGA,132351.000,3101.4548,N,12126.3140,E,1,00,00032.657,M 
$GPGGA,132352.000,3101.4549,N,12126.3123,E,1,00,00031.414,M 
$GPGGA,132353.000,3101.4560,N,12126.3118,E,1,00,00030.263,M 
$GPGGA,132354.000,3101.4561,N,12126.3109,E,1,00,00029.437,M 
$GPGGA,132355.000,3101.4556,N,12126.3094,E,1,00,00022.364,M 
$GPGGA,132356.000,3101.4569,N,12126.3083,E,1,00,00021.426,M 
$GPGGA,132357.000,3101.4582,N,12126.3078,E,1,00,00018.613,M 
$GPGGA,132358.000,3101.4583,N,12126.3065,E,1,00,00018.606,M 
$GPGGA,132359.000,3101.4583,N,12126.3057,E,1,00,00016.929,M 
$GPGGA,132400.000,3101.4592,N,12126.3046,E,1,00,00020.073,M 
$GPGGA,132401.000,3101.4606,N,12126.3032,E,1,00,00021.647,M 
$GPGGA,132402.000,3101.4621,N,12126.3027,E,1,00,00027.811,M 
$GPGGA,132403.000,3101.4636,N,12126.3010,E,1,00,00031.307,M 
$GPGGA,132404.000,3101.4635,N,12126.3002,E,1,00,00030.089,M 
$GPGGA,132405.000,3101.4624,N,12126.2991,E,1,00,00028.833,M 
$GPGGA,132406.000,3101.4624,N,12126.2978,E,1,00,00027.687,M 
$GPGGA,132407.000,3101.4619,N,12126.2976,E,1,00,00029.476,M 
$GPGGA,132408.000,3101.4609,N,12126.2971,E,1,00,00024.991,M 
$GPGGA,132409.000,3101.4594,N,12126.2965,E,1,00,00028.566,M 
$GPGGA,132410.000,3101.4587,N,12126.2965,E,1,00,00023.532,M 
$GPGGA,132411.000,3101.4574,N,12126.2956,E,1,00,00024.217,M 
$GPGGA,132412.000,3101.4554,N,12126.2949,E,1,00,00022.807,M 
$GPGGA,132413.000,3101.4547,N,12126.2940,E,1,00,00022.663,M 
$GPGGA,132414.000,3101.4537,N,12126.2930,E,1,00,00022.511,M 
$GPGGA,132415.000,3101.4524,N,12126.2924,E,1,00,00023.985,M 
$GPGGA,132416.000,3101.4522,N,12126.2916,E,1,00,00021.795,M 
$GPGGA,132417.000,3101.4521,N,12126.2916,E,1,00,00025.474,M 
$GPGGA,132418.000,3101.4509,N,12126.2915,E,1,00,00026.037,M 
$GPGGA,132419.000,3101.4508,N,12126.2903,E,1,00,00023.105,M 
$GPGGA,132420.000,3101.4506,N,12126.2898,E,1,00,00022.317,M 
$GPGGA,132421.000,3101.4499,N,12126.2891,E,1,00,00025.649,M 
$GPGGA,132422.000,3101.4502,N,12126.2885,E,1,00,00024.341,M 
$GPGGA,132423.000,3101.4492,N,12126.2877,E,1,00,00025.920,M 
$GPGGA,132424.000,3101.4501,N,12126.2856,E,1,00,00022.711,M 
$GPGGA,132425.000,3101.4508,N,12126.2845,E,1,00,00025.893,M 
$GPGGA,132426.000,3101.4512,N,12126.2844,E,1,00,00025.055,M 
$GPGGA,132427.000,3101.4511,N,12126.2825,E,1,00,00026.212,M 
$GPGGA,132428.000,3101.4513,N,12126.2819,E,1,00,00024.529,M 
$GPGGA,132429.000,3101.4521,N,12126.2811,E,1,00,00023.388,M 
$GPGGA,132430.000,3101.4519,N,12126.2800,E,1,00,00026.602,M 
$GPGGA,132431.000,3101.4506,N,12126.2796,E,1,00,00031.333,M 
$GPGGA,132432.000,3101.4508,N,12126.2789,E,1,00,00028.793,M 
$GPGGA,132433.000,3101.4514,N,12126.2780,E,1,00,00023.327,M 
$GPGGA,132434.000,3101.4498,N,12126.2784,E,1,00,00028.015,M 
$GPGGA,132435.000,3101.4480,N,12126.2790,E,1,00,00026.893,M 
$GPGGA,132436.000,3101.4477,N,12126.2771,E,1,00,00026.894,M 
$GPGGA,132437.000,3101.4465,N,12126.2777,E,1,00,00028.480,M 
$GPGGA,132438.000,3101.4465,N,12126.2760,E,1,00,00031.034,M 
$GPGGA,132439.000,3101.4456,N,12126.2750,E,1,00,00034.547,M 
$GPGGA,132440.000,3101.4463,N,12126.2746,E,1,00,00034.269,M 
$GPGGA,132441.000,3101.4457,N,12126.2739,E,1,00,00032.635,M 
$GPGGA,132442.000,3101.4452,N,12126.2726,E,1,00,00033.265,M 
$GPGGA,132443.000,3101.4460,N,12126.2722,E,1,00,00029.477,M 
$GPGGA,132444.000,3101.4457,N,12126.2703,E,1,00,00030.917,M 
$GPGGA,132445.000,3101.4467,N,12126.2695,E,1,00,00028.195,M 
$GPGGA,132446.000,3101.4462,N,12126.2686,E,1,00,00027.086,M 
$GPGGA,132447.000,3101.4462,N,12126.2675,E,1,00,00025.860,M 
$GPGGA,132448.000,3101.4454,N,12126.2662,E,1,00,00026.865,M 
$GPGGA,132449.000,3101.4437,N,12126.2665,E,1,00,00025.174,M 
$GPGGA,132450.000,3101.4443,N,12126.2665,E,1,00,00021.364,M 
$GPGGA,132451.000,3101.4428,N,12126.2667,E,1,00,00021.806,M 
$GPGGA,132452.000,3101.4421,N,12126.2664,E,1,00,00025.988,M 
$GPGGA,132453.000,3101.4426,N,12126.2650,E,1,00,00022.061,M 
$GPGGA,132454.000,3101.4423,N,12126.2640,E,1,00,00025.659,M 
$GPGGA,132455.000,3101.4428,N,12126.2629,E,1,00,00021.858,M 
$GPGGA,132456.000,3101.4429,N,12126.2614,E,1,00,00023.794,M 
$GPGGA,132457.000,3101.4436,N,12126.2597,E,1,00,00022.599,M 
$GPGGA,132458.000,3101.4438,N,12126.2578,E,1,00,00022.801,M 
$GPGGA,132459.000,3101.4432,N,12126.2571,E,1,00,00023.612,M 
$GPGGA,132500.000,3101.4420,N,12126.2548,E,1,00,00025.287,M 
$GPGGA,132501.000,3101.4424,N,12126.2527,E,1,00,00026.992,M 
$GPGGA,132502.000,3101.4427,N,12126.2517,E,1,00,00025.737,M 
$GPGGA,132503.000,3101.4425,N,12126.2511,E,1,00,00026.446,M 
$GPGGA,132504.000,3101.4416,N,12126.2501,E,1,00,00027.348,M 
$GPGGA,132505.000,3101.4408,N,12126.2495,E,1,00,00028.053,M 
$GPGGA,132506.000,3101.4406,N,12126.2492,E,1,00,00029.168,M 
$GPGGA,132507.000,3101.4401,N,12126.2498,E,1,00,00029.125,M 
$GPGGA,132508.000,3101.4396,N,12126.2495,E,1,00,00028.062,M 
$GPGGA,132509.000,3101.4390,N,12126.2494,E,1,00,00026.930,M 
$GPGGA,132510.000,3101.4385,N,12126.2488,E,1,00,00024.648,M 
$GPGGA,132511.000,3101.4381,N,12126.2480,E,1,00,00023.847,M 
$GPGGA,132512.000,3101.4377,N,12126.2470,E,1,00,00021.753,M 
$GPGGA,132513.000,3101.4375,N,12126.2472,E,1,00,00024.083,M 
$GPGGA,132514.000,3101.4369,N,12126.2475,E,1,00,00021.987,M 
$GPGGA,132515.000,3101.4372,N,12126.2463,E,1,00,00024.778,M 
$GPGGA,132516.000,3101.4376,N,12126.2455,E,1,00,00027.127,M 
$GPGGA,132517.000,3101.4376,N,12126.2456,E,1,00,00027.409,M 
$GPGGA,132518.000,3101.4379,N,12126.2448,E,1,00,00026.872,M 
$GPGGA,132519.000,3101.4388,N,12126.2442,E,1,00,00024.836,M 
$GPGGA,132520.000,3101.4381,N,12126.2430,E,1,00,00026.627,M 
$GPGGA,132521.000,3101.4382,N,12126.2422,E,1,00,00027.363,M 
$GPGGA,132522.000,3101.4375,N,12126.2413,E,1,00,00029.026,M 
$GPGGA,132523.000,3101.4371,N,12126.2405,E,1,00,00029.089,M 
$GPGGA,132524.000,3101.4358,N,12126.2403,E,1,00,00029.759,M 
$GPGGA,132525.000,3101.4352,N,12126.2393,E,1,00,00027.952,M 
$GPGGA,132526.000,3101.4348,N,12126.2388,E,1,00,00029.023,M 
$GPGGA,132527.000,3101.4337,N,12126.2383,E,1,00,00025.961,M 
$GPGGA,132528.000,3101.4329,N,12126.2374,E,1,00,00026.215,M 
$GPGGA,132529.000,3101.4322,N,12126.2371,E,1,00,00025.493,M 
$GPGGA,132530.000,3101.4304,N,12126.2363,E,1,00,00027.487,M 
$GPGGA,132531.000,3101.4296,N,12126.2367,E,1,00,00028.698,M 
