$GPGGA,131731.000,3101.5496,N,12126.5925,E,1,00,-0017.081,M 
$GPGGA,131732.000,3101.5498,N,12126.5897,E,1,00,-0013.319,M 
$GPGGA,131733.000,3101.5498,N,12126.5873,E,1,00,-0007.836,M 
$GPGGA,131734.000,3101.5501,N,12126.5870,E,1,00,-0005.131,M 
$GPGGA,131735.000,3101.5497,N,12126.5865,E,1,00,-0004.138,M 
$GPGGA,131736.000,3101.5495,N,12126.5858,E,1,00,-0004.376,M 
$GPGGA,131737.000,3101.5489,N,12126.5852,E,1,00,-0004.469,M 
$GPGGA,131738.000,3101.5485,N,12126.5845,E,1,00,-0002.123,M 
$GPGGA,131739.000,3101.5484,N,12126.5839,E,1,00,-0002.527,M 
$GPGGA,131740.000,3101.5485,N,12126.5830,E,1,00,-0002.054,M 
$GPGGA,131741.000,3101.5484,N,12126.5821,E,1,00,00000.083,M 
$GPGGA,131742.000,3101.5478,N,12126.5818,E,1,00,00001.810,M 
$GPGGA,131743.000,3101.5471,N,12126.5813,E,1,00,00000.361,M 
$GPGGA,131744.000,3101.5466,N,12126.5808,E,1,00,00001.441,M 
$GPGGA,131745.000,3101.5464,N,12126.5805,E,1,00,00002.930,M 
$GPGGA,131746.000,3101.5463,N,12126.5801,E,1,00,00002.842,M 
$GPGGA,131747.000,3101.5461,N,12126.5794,E,1,00,00003.286,M 
$GPGGA,131748.000,3101.5457,N,12126.5789,E,1,00,00002.884,M 
$GPGGA,131749.000,3101.5454,N,12126.5784,E,1,00,00003.080,M 
$GPGGA,131750.000,3101.5452,N,12126.5780,E,1,00,00003.111,M 
$GPGGA,131751.000,3101.5450,N,12126.5769,E,1,00,00006.067,M 
$GPGGA,131752.000,3101.5449,N,12126.5764,E,1,00,00006.248,M 
$GPGGA,131753.000,3101.5445,N,12126.5755,E,1,00,00007.456,M 
$GPGGA,131754.000,3101.5444,N,12126.5746,E,1,00,00007.869,M 
$GPGGA,131755.000,3101.5439,N,12126.5737,E,1,00,00008.235,M 
$GPGGA,131756.000,3101.5437,N,12126.5730,E,1,00,00008.867,M 
$GPGGA,131757.000,3101.5431,N,12126.5723,E,1,00,00009.148,M 
$GPGGA,131758.000,3101.5431,N,12126.5712,E,1,00,00010.170,M 
$GPGGA,131759.000,3101.5434,N,12126.5705,E,1,00,00009.760,M 
$GPGGA,131800.000,3101.5432,N,12126.5697,E,1,00,00010.143,M 
$GPGGA,131801.000,3101.5431,N,12126.5690,E,1,00,00009.433,M 
$GPGGA,131802.000,3101.5429,N,12126.5686,E,1,00,00010.385,M 
$GPGGA,131803.000,3101.5428,N,12126.5677,E,1,00,00011.484,M 
$GPGGA,131804.000,3101.5424,N,12126.5673,E,1,00,00011.521,M 
$GPGGA,131805.000,3101.5413,N,12126.5669,E,1,00,00011.720,M 
$GPGGA,131806.000,3101.5409,N,12126.5668,E,1,00,00011.068,M 
$GPGGA,131807.000,3101.5407,N,12126.5665,E,1,00,00011.085,M 
$GPGGA,131808.000,3101.5406,N,12126.5659,E,1,00,00010.794,M 
$GPGGA,131809.000,3101.5410,N,12126.5651,E,1,00,00012.184,M 
$GPGGA,131810.000,3101.5408,N,12126.5641,E,1,00,00014.068,M 
$GPGGA,131811.000,3101.5408,N,12126.5631,E,1,00,00014.901,M 
$GPGGA,131812.000,3101.5405,N,12126.5623,E,1,00,00014.976,M 
$GPGGA,131813.000,3101.5398,N,12126.5625,E,1,00,00015.439,M 
$GPGGA,131814.000,3101.5397,N,12126.5621,E,1,00,00015.747,M 
$GPGGA,131815.000,3101.5390,N,12126.5612,E,1,00,00016.760,M 
$GPGGA,131816.000,3101.5386,N,12126.5605,E,1,00,00015.673,M 
$GPGGA,131817.000,3101.5383,N,12126.5594,E,1,00,00016.150,M 
$GPGGA,131818.000,3101.5377,N,12126.5589,E,1,00,00016.862,M 
$GPGGA,131819.000,3101.5369,N,12126.5584,E,1,00,00016.696,M 
$GPGGA,131820.000,3101.5364,N,12126.5571,E,1,00,00016.128,M 
$GPGGA,131821.000,3101.5366,N,12126.5564,E,1,00,00017.198,M 
$GPGGA,131822.000,3101.5363,N,12126.5552,E,1,00,00018.471,M 
$GPGGA,131823.000,3101.5366,N,12126.5545,E,1,00,00018.642,M 
$GPGGA,131824.000,3101.5366,N,12126.5531,E,1,00,00019.177,M 
$GPGGA,131825.000,3101.5359,N,12126.5526,E,1,00,00018.942,M 
$GPGGA,131826.000,3101.5353,N,12126.5524,E,1,00,00018.712,M 
$GPGGA,131827.000,3101.5349,N,12126.5520,E,1,00,00019.046,M 
$GPGGA,131828.000,3101.5349,N,12126.5510,E,1,00,00019.957,M 
$GPGGA,131829.000,3101.5347,N,12126.5503,E,1,00,00020.350,M 
$GPGGA,131830.000,3101.5354,N,12126.5491,E,1,00,00021.462,M 
$GPGGA,131831.000,3101.5351,N,12126.5486,E,1,00,00022.612,M 
$GPGGA,131832.000,3101.5346,N,12126.5480,E,1,00,00022.999,M 
$GPGGA,131833.000,3101.5347,N,12126.5477,E,1,00,00023.185,M 
$GPGGA,131834.000,3101.5348,N,12126.5471,E,1,00,00023.608,M 
$GPGGA,131835.000,3101.5351,N,12126.5466,E,1,00,00023.188,M 
$GPGGA,131836.000,3101.5347,N,12126.5461,E,1,00,00024.227,M 
$GPGGA,131837.000,3101.5338,N,12126.5456,E,1,00,00024.219,M 
$GPGGA,131838.000,3101.5334,N,12126.5453,E,1,00,00023.356,M 
$GPGGA,131839.000,3101.5335,N,12126.5447,E,1,00,00022.451,M 
$GPGGA,131840.000,3101.5333,N,12126.5439,E,1,00,00022.770,M 
$GPGGA,131841.000,3101.5330,N,12126.5438,E,1,00,00022.057,M 
$GPGGA,131842.000,3101.5330,N,12126.5436,E,1,00,00022.990,M 
$GPGGA,131843.000,3101.5325,N,12126.5423,E,1,00,00022.888,M 
$GPGGA,131844.000,3101.5319,N,12126.5415,E,1,00,00023.354,M 
$GPGGA,131845.000,3101.5320,N,12126.5410,E,1,00,00023.437,M 
$GPGGA,131846.000,3101.5319,N,12126.5405,E,1,00,00024.194,M 
$GPGGA,131847.000,3101.5316,N,12126.5394,E,1,00,00023.298,M 
$GPGGA,131848.000,3101.5314,N,12126.5388,E,1,00,00022.518,M 
$GPGGA,131849.000,3101.5311,N,12126.5380,E,1,00,00023.141,M 
$GPGGA,131850.000,3101.5310,N,12126.5375,E,1,00,00023.611,M 
$GPGGA,131851.000,3101.5307,N,12126.5371,E,1,00,00023.085,M 
$GPGGA,131852.000,3101.5306,N,12126.5360,E,1,00,00023.989,M 
$GPGGA,131853.000,3101.5307,N,12126.5350,E,1,00,00022.362,M 
$GPGGA,131854.000,3101.5306,N,12126.5346,E,1,00,00023.131,M 
$GPGGA,131855.000,3101.5307,N,12126.5336,E,1,00,00024.597,M 
$GPGGA,131856.000,3101.5306,N,12126.5330,E,1,00,00024.045,M 
$GPGGA,131857.000,3101.5309,N,12126.5321,E,1,00,00025.641,M 
$GPGGA,131858.000,3101.5311,N,12126.5313,E,1,00,00025.878,M 
$GPGGA,131859.000,3101.5309,N,12126.5299,E,1,00,00027.493,M 
$GPGGA,131900.000,3101.5309,N,12126.5295,E,1,00,00027.539,M 
$GPGGA,131901.000,3101.5312,N,12126.5286,E,1,00,00027.930,M 
$GPGGA,131902.000,3101.5318,N,12126.5284,E,1,00,00028.038,M 
$GPGGA,131903.000,3101.5323,N,12126.5274,E,1,00,00028.805,M 
$GPGGA,131904.000,3101.5328,N,12126.5272,E,1,00,00029.160,M 
$GPGGA,131905.000,3101.5329,N,12126.5266,E,1,00,00030.330,M 
$GPGGA,131906.000,3101.5330,N,12126.5258,E,1,00,00032.309,M 
$GPGGA,131907.000,3101.5326,N,12126.5262,E,1,00,00032.484,M 
$GPGGA,131908.000,3101.5326,N,12126.5259,E,1,00,00032.852,M 
$GPGGA,131909.000,3101.5325,N,12126.5261,E,1,00,00033.086,M 
$GPGGA,131910.000,3101.5318,N,12126.5253,E,1,00,00032.863,M 
$GPGGA,131911.000,3101.5310,N,12126.5249,E,1,00,00031.444,M 
$GPGGA,131912.000,3101.5306,N,12126.5241,E,1,00,00030.882,M 
$GPGGA,131913.000,3101.5302,N,12126.5231,E,1,00,00031.005,M 
$GPGGA,131914.000,3101.5296,N,12126.5223,E,1,00,00030.935,M 
$GPGGA,131915.000,3101.5285,N,12126.5215,E,1,00,00030.527,M 
$GPGGA,131916.000,3101.5280,N,12126.5207,E,1,00,00031.048,M 
$GPGGA,131917.000,3101.5274,N,12126.5200,E,1,00,00030.003,M 
$GPGGA,131918.000,3101.5263,N,12126.5187,E,1,00,00028.772,M 
$GPGGA,131919.000,3101.5255,N,12126.5180,E,1,00,00028.074,M 
$GPGGA,131920.000,3101.5256,N,12126.5168,E,1,00,00028.820,M 
$GPGGA,131921.000,3101.5254,N,12126.5163,E,1,00,00029.414,M 
$GPGGA,131922.000,3101.5254,N,12126.5155,E,1,00,00028.621,M 
$GPGGA,131923.000,3101.5250,N,12126.5147,E,1,00,00028.703,M 
$GPGGA,131924.000,3101.5244,N,12126.5141,E,1,00,00027.183,M 
$GPGGA,131925.000,3101.5240,N,12126.5138,E,1,00,00026.701,M 
$GPGGA,131926.000,3101.5233,N,12126.5128,E,1,00,00026.781,M 
$GPGGA,131927.000,3101.5228,N,12126.5122,E,1,00,00026.197,M 
$GPGGA,131928.000,3101.5223,N,12126.5113,E,1,00,00026.048,M 
$GPGGA,131929.000,3101.5220,N,12126.5098,E,1,00,00026.775,M 
$GPGGA,131930.000,3101.5218,N,12126.5088,E,1,00,00026.665,M 
$GPGGA,131931.000,3101.5220,N,12126.5085,E,1,00,00026.155,M 
$GPGGA,131932.000,3101.5217,N,12126.5078,E,1,00,00025.084,M 
$GPGGA,131933.000,3101.5216,N,12126.5068,E,1,00,00025.317,M 
$GPGGA,131934.000,3101.5214,N,12126.5060,E,1,00,00025.923,M 
$GPGGA,131935.000,3101.5209,N,12126.5053,E,1,00,00025.675,M 
$GPGGA,131936.000,3101.5204,N,12126.5044,E,1,00,00026.125,M 
$GPGGA,131937.000,3101.5202,N,12126.5033,E,1,00,00024.743,M 
$GPGGA,131938.000,3101.5199,N,12126.5023,E,1,00,00024.666,M 
$GPGGA,131939.000,3101.5200,N,12126.5015,E,1,00,00023.907,M 
$GPGGA,131940.000,3101.5197,N,12126.5000,E,1,00,00024.811,M 
$GPGGA,131941.000,3101.5198,N,12126.4995,E,1,00,00024.782,M 
$GPGGA,131942.000,3101.5196,N,12126.4986,E,1,00,00024.660,M 
$GPGGA,131943.000,3101.5192,N,12126.4978,E,1,00,00023.413,M 
$GPGGA,131944.000,3101.5195,N,12126.4973,E,1,00,00021.616,M 
$GPGGA,131945.000,3101.5189,N,12126.4964,E,1,00,00021.101,M 
$GPGGA,131946.000,3101.5182,N,12126.4954,E,1,00,00021.484,M 
$GPGGA,131947.000,3101.5179,N,12126.4947,E,1,00,00020.884,M 
$GPGGA,131948.000,3101.5181,N,12126.4938,E,1,00,00021.230,M 
$GPGGA,131949.000,3101.5189,N,12126.4932,E,1,00,00022.918,M 
$GPGGA,131950.000,3101.5193,N,12126.4926,E,1,00,00022.297,M 
$GPGGA,131951.000,3101.5199,N,12126.4918,E,1,00,00023.589,M 
$GPGGA,131952.000,3101.5204,N,12126.4907,E,1,00,00025.294,M 
$GPGGA,131953.000,3101.5207,N,12126.4902,E,1,00,00025.051,M 
$GPGGA,131954.000,3101.5213,N,12126.4891,E,1,00,00026.146,M 
$GPGGA,131955.000,3101.5220,N,12126.4881,E,1,00,00026.783,M 
$GPGGA,131956.000,3101.5226,N,12126.4870,E,1,00,00026.959,M 
$GPGGA,131957.000,3101.5233,N,12126.4860,E,1,00,00027.697,M 
$GPGGA,131958.000,3101.5236,N,12126.4849,E,1,00,00028.734,M 
$GPGGA,131959.000,3101.5236,N,12126.4841,E,1,00,00028.367,M 
$GPGGA,132000.000,3101.5237,N,12126.4840,E,1,00,00027.820,M 
$GPGGA,132001.000,3101.5234,N,12126.4835,E,1,00,00028.830,M 
$GPGGA,132002.000,3101.5228,N,12126.4836,E,1,00,00028.598,M 
$GPGGA,132003.000,3101.5225,N,12126.4830,E,1,00,00028.673,M 
$GPGGA,132004.000,3101.5227,N,12126.4823,E,1,00,00030.394,M 
$GPGGA,132005.000,3101.5227,N,12126.4821,E,1,00,00031.679,M 
$GPGGA,132006.000,3101.5229,N,12126.4811,E,1,00,00032.947,M 
$GPGGA,132007.000,3101.5228,N,12126.4807,E,1,00,00032.404,M 
$GPGGA,132008.000,3101.5218,N,12126.4804,E,1,00,00031.518,M 
$GPGGA,132009.000,3101.5210,N,12126.4797,E,1,00,00032.058,M 
$GPGGA,132010.000,3101.5204,N,12126.4793,E,1,00,00031.155,M 
$GPGGA,132011.000,3101.5196,N,12126.4791,E,1,00,00031.097,M 
$GPGGA,132012.000,3101.5185,N,12126.4785,E,1,00,00033.860,M 
$GPGGA,132013.000,3101.5176,N,12126.4781,E,1,00,00033.612,M 
$GPGGA,132014.000,3101.5166,N,12126.4774,E,1,00,00032.619,M 
$GPGGA,132015.000,3101.5160,N,12126.4762,E,1,00,00030.390,M 
$GPGGA,132016.000,3101.5151,N,12126.4752,E,1,00,00032.512,M 
$GPGGA,132017.000,3101.5142,N,12126.4747,E,1,00,00034.814,M 
$GPGGA,132018.000,3101.5131,N,12126.4745,E,1,00,00035.904,M 
$GPGGA,132019.000,3101.5124,N,12126.4731,E,1,00,00036.113,M 
$GPGGA,132020.000,3101.5121,N,12126.4721,E,1,00,00033.650,M 
$GPGGA,132021.000,3101.5114,N,12126.4712,E,1,00,00034.229,M 
$GPGGA,132022.000,3101.5110,N,12126.4703,E,1,00,00032.617,M 
$GPGGA,132023.000,3101.5104,N,12126.4696,E,1,00,00030.249,M 
$GPGGA,132024.000,3101.5098,N,12126.4683,E,1,00,00030.408,M 
$GPGGA,132025.000,3101.5090,N,12126.4675,E,1,00,00029.518,M 
$GPGGA,132026.000,3101.5085,N,12126.4668,E,1,00,00028.139,M 
$GPGGA,132027.000,3101.5080,N,12126.4658,E,1,00,00027.924,M 
$GPGGA,132028.000,3101.5075,N,12126.4651,E,1,00,00027.988,M 
$GPGGA,132029.000,3101.5070,N,12126.4642,E,1,00,00028.629,M 
$GPGGA,132030.000,3101.5064,N,12126.4636,E,1,00,00027.924,M 
$GPGGA,132031.000,3101.5059,N,12126.4627,E,1,00,00028.016,M 
$GPGGA,132032.000,3101.5052,N,12126.4619,E,1,00,00026.857,M 
$GPGGA,132033.000,3101.5048,N,12126.4609,E,1,00,00025.954,M 
$GPGGA,132034.000,3101.5049,N,12126.4599,E,1,00,00025.831,M 
$GPGGA,132035.000,3101.5043,N,12126.4587,E,1,00,00026.263,M 
$GPGGA,132036.000,3101.5039,N,12126.4579,E,1,00,00025.523,M 
$GPGGA,132037.000,3101.5036,N,12126.4571,E,1,00,00025.623,M 
$GPGGA,132038.000,3101.5037,N,12126.4562,E,1,00,00024.493,M 
$GPGGA,132039.000,3101.5036,N,12126.4551,E,1,00,00024.485,M 
$GPGGA,132040.000,3101.5033,N,12126.4549,E,1,00,00023.734,M 
$GPGGA,132041.000,3101.5028,N,12126.4538,E,1,00,00023.037,M 
$GPGGA,132042.000,3101.5023,N,12126.4531,E,1,00,00021.086,M 
$GPGGA,132043.000,3101.5020,N,12126.4522,E,1,00,00021.170,M 
$GPGGA,132044.000,3101.5018,N,12126.4512,E,1,00,00021.057,M 
$GPGGA,132045.000,3101.5016,N,12126.4504,E,1,00,00021.355,M 
$GPGGA,132046.000,3101.5015,N,12126.4488,E,1,00,00021.215,M 
$GPGGA,132047.000,3101.5014,N,12126.4482,E,1,00,00020.782,M 
$GPGGA,132048.000,3101.5010,N,12126.4474,E,1,00,00021.224,M 
$GPGGA,132049.000,3101.5009,N,12126.4467,E,1,00,00021.176,M 
$GPGGA,132050.000,3101.5006,N,12126.4459,E,1,00,00020.373,M 
$GPGGA,132051.000,3101.5003,N,12126.4451,E,1,00,00022.321,M 
$GPGGA,132052.000,3101.5000,N,12126.4440,E,1,00,00022.341,M 
$GPGGA,132053.000,3101.4997,N,12126.4430,E,1,00,00022.484,M 
$GPGGA,132054.000,3101.4993,N,12126.4422,E,1,00,00022.207,M 
$GPGGA,132055.000,3101.4990,N,12126.4413,E,1,00,00022.439,M 
$GPGGA,132056.000,3101.4986,N,12126.4407,E,1,00,00022.131,M 
$GPGGA,132057.000,3101.4984,N,12126.4401,E,1,00,00021.334,M 
$GPGGA,132058.000,3101.4983,N,12126.4402,E,1,00,00020.655,M 
$GPGGA,132059.000,3101.4983,N,12126.4394,E,1,00,00020.094,M 
$GPGGA,132100.000,3101.4982,N,12126.4386,E,1,00,00021.474,M 
$GPGGA,132101.000,3101.4980,N,12126.4379,E,1,00,00021.833,M 
$GPGGA,132102.000,3101.4977,N,12126.4373,E,1,00,00021.966,M 
$GPGGA,132103.000,3101.4973,N,12126.4368,E,1,00,00021.692,M 
$GPGGA,132104.000,3101.4966,N,12126.4360,E,1,00,00021.151,M 
$GPGGA,132105.000,3101.4965,N,12126.4351,E,1,00,00021.361,M 
$GPGGA,132106.000,3101.4962,N,12126.4349,E,1,00,00020.290,M 
$GPGGA,132107.000,3101.4959,N,12126.4338,E,1,00,00021.679,M 
$GPGGA,132108.000,3101.4958,N,12126.4333,E,1,00,00022.407,M 
$GPGGA,132109.000,3101.4954,N,12126.4327,E,1,00,00021.479,M 
$GPGGA,132110.000,3101.4951,N,12126.4319,E,1,00,00021.260,M 
$GPGGA,132111.000,3101.4947,N,12126.4312,E,1,00,00022.630,M 
$GPGGA,132112.000,3101.4944,N,12126.4301,E,1,00,00021.650,M 
$GPGGA,132113.000,3101.4944,N,12126.4297,E,1,00,00020.461,M 
$GPGGA,132114.000,3101.4940,N,12126.4294,E,1,00,00020.052,M 
$GPGGA,132115.000,3101.4937,N,12126.4288,E,1,00,00020.731,M 
$GPGGA,132116.000,3101.4936,N,12126.4281,E,1,00,00020.966,M 
$GPGGA,132117.000,3101.4933,N,12126.4275,E,1,00,00020.253,M 
$GPGGA,132118.000,3101.4931,N,12126.4270,E,1,00,00019.535,M 
$GPGGA,132119.000,3101.4928,N,12126.4257,E,1,00,00020.172,M 
$GPGGA,132120.000,3101.4928,N,12126.4250,E,1,00,00022.130,M 
$GPGGA,132121.000,3101.4927,N,12126.4248,E,1,00,00021.136,M 
$GPGGA,132122.000,3101.4926,N,12126.4235,E,1,00,00021.654,M 
$GPGGA,132123.000,3101.4923,N,12126.4232,E,1,00,00022.586,M 
$GPGGA,132124.000,3101.4920,N,12126.4219,E,1,00,00023.893,M 
$GPGGA,132125.000,3101.4916,N,12126.4209,E,1,00,00025.139,M 
$GPGGA,132126.000,3101.4915,N,12126.4200,E,1,00,00023.725,M 
$GPGGA,132127.000,3101.4913,N,12126.4190,E,1,00,00024.256,M 
$GPGGA,132128.000,3101.4911,N,12126.4184,E,1,00,00024.353,M 
$GPGGA,132129.000,3101.4911,N,12126.4178,E,1,00,00022.837,M 
$GPGGA,132130.000,3101.4907,N,12126.4170,E,1,00,00021.737,M 
$GPGGA,132131.000,3101.4904,N,12126.4158,E,1,00,00022.967,M 
$GPGGA,132132.000,3101.4903,N,12126.4148,E,1,00,00022.832,M 
$GPGGA,132133.000,3101.4902,N,12126.4139,E,1,00,00022.028,M 
$GPGGA,132134.000,3101.4895,N,12126.4130,E,1,00,00021.834,M 
$GPGGA,132135.000,3101.4895,N,12126.4125,E,1,00,00021.063,M 
$GPGGA,132136.000,3101.4892,N,12126.4116,E,1,00,00022.512,M 
$GPGGA,132137.000,3101.4891,N,12126.4107,E,1,00,00024.097,M 
$GPGGA,132138.000,3101.4890,N,12126.4099,E,1,00,00026.247,M 
$GPGGA,132139.000,3101.4888,N,12126.4094,E,1,00,00025.451,M 
$GPGGA,132140.000,3101.4893,N,12126.4088,E,1,00,00025.918,M 
$GPGGA,132141.000,3101.4892,N,12126.4081,E,1,00,00023.609,M 
$GPGGA,132142.000,3101.4899,N,12126.4072,E,1,00,00024.688,M 
$GPGGA,132143.000,3101.4906,N,12126.4062,E,1,00,00026.739,M 
$GPGGA,132144.000,3101.4905,N,12126.4056,E,1,00,00025.954,M 
$GPGGA,132145.000,3101.4904,N,12126.4055,E,1,00,00026.952,M 
$GPGGA,132146.000,3101.4903,N,12126.4051,E,1,00,00026.127,M 
$GPGGA,132147.000,3101.4902,N,12126.4043,E,1,00,00027.063,M 
$GPGGA,132148.000,3101.4906,N,12126.4038,E,1,00,00027.418,M 
$GPGGA,132149.000,3101.4903,N,12126.4031,E,1,00,00027.499,M 
$GPGGA,132150.000,3101.4901,N,12126.4022,E,1,00,00027.668,M 
$GPGGA,132151.000,3101.4904,N,12126.4010,E,1,00,00030.581,M 
$GPGGA,132152.000,3101.4903,N,12126.4003,E,1,00,00030.360,M 
$GPGGA,132153.000,3101.4898,N,12126.3996,E,1,00,00029.578,M 
$GPGGA,132154.000,3101.4893,N,12126.3988,E,1,00,00029.253,M 
$GPGGA,132155.000,3101.4892,N,12126.3983,E,1,00,00028.825,M 
$GPGGA,132156.000,3101.4892,N,12126.3978,E,1,00,00028.903,M 
$GPGGA,132157.000,3101.4888,N,12126.3970,E,1,00,00029.276,M 
$GPGGA,132158.000,3101.4888,N,12126.3963,E,1,00,00029.887,M 
$GPGGA,132159.000,3101.4890,N,12126.3951,E,1,00,00031.517,M 
$GPGGA,132200.000,3101.4888,N,12126.3944,E,1,00,00031.136,M 
$GPGGA,132201.000,3101.4889,N,12126.3936,E,1,00,00032.648,M 
$GPGGA,132202.000,3101.4896,N,12126.3934,E,1,00,00033.498,M 
$GPGGA,132203.000,3101.4892,N,12126.3931,E,1,00,00033.475,M 
$GPGGA,132204.000,3101.4883,N,12126.3926,E,1,00,00032.810,M 
$GPGGA,132205.000,3101.4881,N,12126.3916,E,1,00,00032.920,M 
$GPGGA,132206.000,3101.4874,N,12126.3907,E,1,00,00032.767,M 
$GPGGA,132207.000,3101.4868,N,12126.3901,E,1,00,00031.859,M 
$GPGGA,132208.000,3101.4861,N,12126.3889,E,1,00,00032.395,M 
$GPGGA,132209.000,3101.4856,N,12126.3879,E,1,00,00032.960,M 
$GPGGA,132210.000,3101.4853,N,12126.3875,E,1,00,00031.916,M 
$GPGGA,132211.000,3101.4849,N,12126.3869,E,1,00,00032.227,M 
$GPGGA,132212.000,3101.4845,N,12126.3860,E,1,00,00031.730,M 
$GPGGA,132213.000,3101.4842,N,12126.3853,E,1,00,00031.881,M 
$GPGGA,132214.000,3101.4840,N,12126.3845,E,1,00,00030.851,M 
$GPGGA,132215.000,3101.4832,N,12126.3840,E,1,00,00028.589,M 
$GPGGA,132216.000,3101.4831,N,12126.3834,E,1,00,00026.962,M 
$GPGGA,132217.000,3101.4826,N,12126.3829,E,1,00,00025.815,M 
$GPGGA,132218.000,3101.4824,N,12126.3821,E,1,00,00027.922,M 
$GPGGA,132219.000,3101.4819,N,12126.3814,E,1,00,00029.128,M 
$GPGGA,132220.000,3101.4818,N,12126.3804,E,1,00,00028.893,M 
$GPGGA,132221.000,3101.4813,N,12126.3796,E,1,00,00028.620,M 
$GPGGA,132222.000,3101.4805,N,12126.3790,E,1,00,00028.820,M 
$GPGGA,132223.000,3101.4803,N,12126.3780,E,1,00,00029.876,M 
$GPGGA,132224.000,3101.4801,N,12126.3774,E,1,00,00029.813,M 
$GPGGA,132225.000,3101.4798,N,12126.3764,E,1,00,00028.959,M 
$GPGGA,132226.000,3101.4799,N,12126.3760,E,1,00,00027.517,M 
$GPGGA,132227.000,3101.4794,N,12126.3753,E,1,00,00026.597,M 
$GPGGA,132228.000,3101.4792,N,12126.3738,E,1,00,00027.642,M 
$GPGGA,132229.000,3101.4792,N,12126.3725,E,1,00,00027.490,M 
$GPGGA,132230.000,3101.4792,N,12126.3718,E,1,00,00028.585,M 
$GPGGA,132231.000,3101.4789,N,12126.3709,E,1,00,00028.899,M 
$GPGGA,132232.000,3101.4783,N,12126.3708,E,1,00,00028.383,M 
$GPGGA,132233.000,3101.4779,N,12126.3697,E,1,00,00028.718,M 
$GPGGA,132234.000,3101.4773,N,12126.3689,E,1,00,00026.951,M 
$GPGGA,132235.000,3101.4773,N,12126.3679,E,1,00,00026.425,M 
$GPGGA,132236.000,3101.4768,N,12126.3674,E,1,00,00026.194,M 
$GPGGA,132237.000,3101.4767,N,12126.3664,E,1,00,00026.460,M 
$GPGGA,132238.000,3101.4764,N,12126.3657,E,1,00,00026.764,M 
$GPGGA,132239.000,3101.4762,N,12126.3652,E,1,00,00027.623,M 
$GPGGA,132240.000,3101.4757,N,12126.3644,E,1,00,00028.473,M 
$GPGGA,132241.000,3101.4756,N,12126.3634,E,1,00,00028.369,M 
$GPGGA,132242.000,3101.4755,N,12126.3632,E,1,00,00026.616,M 
$GPGGA,132243.000,3101.4749,N,12126.3622,E,1,00,00026.138,M 
$GPGGA,132244.000,3101.4743,N,12126.3607,E,1,00,00026.425,M 
$GPGGA,132245.000,3101.4738,N,12126.3604,E,1,00,00025.929,M 
$GPGGA,132246.000,3101.4732,N,12126.3598,E,1,00,00026.167,M 
$GPGGA,132247.000,3101.4736,N,12126.3591,E,1,00,00026.021,M 
$GPGGA,132248.000,3101.4732,N,12126.3581,E,1,00,00025.916,M 
$GPGGA,132249.000,3101.4730,N,12126.3574,E,1,00,00026.479,M 
$GPGGA,132250.000,3101.4730,N,12126.3565,E,1,00,00028.014,M 
$GPGGA,132251.000,3101.4727,N,12126.3554,E,1,00,00029.213,M 
$GPGGA,132252.000,3101.4723,N,12126.3548,E,1,00,00029.915,M 
$GPGGA,132253.000,3101.4722,N,12126.3543,E,1,00,00029.819,M 
$GPGGA,132254.000,3101.4724,N,12126.3537,E,1,00,00029.850,M 
$GPGGA,132255.000,3101.4724,N,12126.3529,E,1,00,00029.010,M 
$GPGGA,132256.000,3101.4724,N,12126.3518,E,1,00,00029.483,M 
$GPGGA,132257.000,3101.4723,N,12126.3514,E,1,00,00029.499,M 
$GPGGA,132258.000,3101.4721,N,12126.3508,E,1,00,00029.332,M 
$GPGGA,132259.000,3101.4721,N,12126.3499,E,1,00,00029.403,M 
$GPGGA,132300.000,3101.4721,N,12126.3490,E,1,00,00027.307,M 
$GPGGA,132301.000,3101.4718,N,12126.3480,E,1,00,00024.913,M 
$GPGGA,132302.000,3101.4721,N,12126.3472,E,1,00,00023.871,M 
$GPGGA,132303.000,3101.4719,N,12126.3461,E,1,00,00024.510,M 
$GPGGA,132304.000,3101.4713,N,12126.3453,E,1,00,00023.369,M 
$GPGGA,132305.000,3101.4710,N,12126.3445,E,1,00,00022.441,M 
$GPGGA,132306.000,3101.4707,N,12126.3437,E,1,00,00024.318,M 
$GPGGA,132307.000,3101.4699,N,12126.3430,E,1,00,00024.105,M 
$GPGGA,132308.000,3101.4691,N,12126.3422,E,1,00,00023.699,M 
$GPGGA,132309.000,3101.4685,N,12126.3421,E,1,00,00021.460,M 
$GPGGA,132310.000,3101.4683,N,12126.3418,E,1,00,00020.707,M 
$GPGGA,132311.000,3101.4677,N,12126.3411,E,1,00,00022.343,M 
$GPGGA,132312.000,3101.4673,N,12126.3403,E,1,00,00021.677,M 
$GPGGA,132313.000,3101.4675,N,12126.3391,E,1,00,00020.542,M 
$GPGGA,132314.000,3101.4671,N,12126.3384,E,1,00,00020.411,M 
$GPGGA,132315.000,3101.4667,N,12126.3381,E,1,00,00019.888,M 
$GPGGA,132316.000,3101.4663,N,12126.3371,E,1,00,00021.068,M 
$GPGGA,132317.000,3101.4662,N,12126.3361,E,1,00,00021.453,M 
$GPGGA,132318.000,3101.4663,N,12126.3355,E,1,00,00022.027,M 
$GPGGA,132319.000,3101.4662,N,12126.3346,E,1,00,00021.915,M 
$GPGGA,132320.000,3101.4660,N,12126.3342,E,1,00,00021.943,M 
$GPGGA,132321.000,3101.4659,N,12126.3330,E,1,00,00024.382,M 
$GPGGA,132322.000,3101.4654,N,12126.3328,E,1,00,00022.777,M 
$GPGGA,132323.000,3101.4653,N,12126.3319,E,1,00,00022.896,M 
$GPGGA,132324.000,3101.4651,N,12126.3315,E,1,00,00020.875,M 
$GPGGA,132325.000,3101.4649,N,12126.3306,E,1,00,00019.803,M 
$GPGGA,132326.000,3101.4644,N,12126.3299,E,1,00,00020.446,M 
$GPGGA,132327.000,3101.4638,N,12126.3290,E,1,00,00020.924,M 
$GPGGA,132328.000,3101.4637,N,12126.3290,E,1,00,00020.680,M 
$GPGGA,132329.000,3101.4634,N,12126.3282,E,1,00,00021.384,M 
$GPGGA,132330.000,3101.4631,N,12126.3273,E,1,00,00022.809,M 
$GPGGA,132331.000,3101.4629,N,12126.3268,E,1,00,00024.906,M 
$GPGGA,132332.000,3101.4625,N,12126.3270,E,1,00,00025.835,M 
$GPGGA,132333.000,3101.4619,N,12126.3276,E,1,00,00026.954,M 
$GPGGA,132334.000,3101.4613,N,12126.3270,E,1,00,00029.658,M 
$GPGGA,132335.000,3101.4609,N,12126.3266,E,1,00,00031.022,M 
$GPGGA,132336.000,3101.4606,N,12126.3263,E,1,00,00032.232,M 
$GPGGA,132337.000,3101.4600,N,12126.3259,E,1,00,00034.993,M 
$GPGGA,132338.000,3101.4590,N,12126.3261,E,1,00,00036.751,M 
$GPGGA,132339.000,3101.4585,N,12126.3260,E,1,00,00038.985,M 
$GPGGA,132340.000,3101.4577,N,12126.3251,E,1,00,00039.827,M 
$GPGGA,132341.000,3101.4570,N,12126.3241,E,1,00,00038.663,M 
$GPGGA,132342.000,3101.4565,N,12126.3227,E,1,00,00038.791,M 
$GPGGA,132343.000,3101.4565,N,12126.3218,E,1,00,00037.353,M 
$GPGGA,132344.000,3101.4560,N,12126.3207,E,1,00,00037.119,M 
$GPGGA,132345.000,3101.4558,N,12126.3202,E,1,00,00035.618,M 
$GPGGA,132346.000,3101.4555,N,12126.3191,E,1,00,00035.848,M 
$GPGGA,132347.000,3101.4553,N,12126.3176,E,1,00,00035.419,M 
$GPGGA,132348.000,3101.4552,N,12126.3169,E,1,00,00034.363,M 
$GPGGA,132349.000,3101.4551,N,12126.3152,E,1,00,00034.129,M 
$GPGGA,132350.000,3101.4546,N,12126.3139,E,1,00,00033.397,M 
$GPGGA,132351.000,3101.4548,N,12126.3125,E,1,00,00034.039,M 
$GPGGA,132352.000,3101.4543,N,12126.3112,E,1,00,00033.883,M 
$GPGGA,132353.000,3101.4545,N,12126.3106,E,1,00,00033.224,M 
$GPGGA,132354.000,3101.4543,N,12126.3098,E,1,00,00033.477,M 
$GPGGA,132355.000,3101.4537,N,12126.3088,E,1,00,00031.647,M 
$GPGGA,132356.000,3101.4540,N,12126.3079,E,1,00,00030.845,M 
$GPGGA,132357.000,3101.4543,N,12126.3075,E,1,00,00029.560,M 
$GPGGA,132358.000,3101.4541,N,12126.3064,E,1,00,00029.653,M 
$GPGGA,132359.000,3101.4539,N,12126.3058,E,1,00,00029.547,M 
$GPGGA,132400.000,3101.4541,N,12126.3050,E,1,00,00030.398,M 
$GPGGA,132401.000,3101.4545,N,12126.3041,E,1,00,00030.269,M 
$GPGGA,132402.000,3101.4553,N,12126.3034,E,1,00,00033.315,M 
$GPGGA,132403.000,3101.4561,N,12126.3022,E,1,00,00036.268,M 
$GPGGA,132404.000,3101.4558,N,12126.3015,E,1,00,00036.574,M 
$GPGGA,132405.000,3101.4551,N,12126.3008,E,1,00,00036.381,M 
$GPGGA,132406.000,3101.4549,N,12126.2999,E,1,00,00035.879,M 
$GPGGA,132407.000,3101.4548,N,12126.2994,E,1,00,00036.147,M 
$GPGGA,132408.000,3101.4540,N,12126.2993,E,1,00,00034.936,M 
$GPGGA,132409.000,3101.4537,N,12126.2984,E,1,00,00034.978,M 
$GPGGA,132410.000,3101.4532,N,12126.2983,E,1,00,00032.284,M 
$GPGGA,132411.000,3101.4527,N,12126.2972,E,1,00,00032.174,M 
$GPGGA,132412.000,3101.4515,N,12126.2966,E,1,00,00031.262,M 
$GPGGA,132413.000,3101.4514,N,12126.2958,E,1,00,00031.103,M 
$GPGGA,132414.000,3101.4510,N,12126.2949,E,1,00,00031.110,M 
$GPGGA,132415.000,3101.4507,N,12126.2939,E,1,00,00031.012,M 
$GPGGA,132416.000,3101.4504,N,12126.2934,E,1,00,00030.196,M 
$GPGGA,132417.000,3101.4504,N,12126.2928,E,1,00,00031.199,M 
$GPGGA,132418.000,3101.4498,N,12126.2925,E,1,00,00030.540,M 
$GPGGA,132419.000,3101.4494,N,12126.2917,E,1,00,00029.590,M 
$GPGGA,132420.000,3101.4488,N,12126.2913,E,1,00,00029.284,M 
$GPGGA,132421.000,3101.4486,N,12126.2903,E,1,00,00029.454,M 
$GPGGA,132422.000,3101.4483,N,12126.2899,E,1,00,00028.629,M 
$GPGGA,132423.000,3101.4477,N,12126.2890,E,1,00,00028.642,M 
$GPGGA,132424.000,3101.4478,N,12126.2878,E,1,00,00026.983,M 
$GPGGA,132425.000,3101.4482,N,12126.2867,E,1,00,00027.507,M 
$GPGGA,132426.000,3101.4479,N,12126.2866,E,1,00,00027.745,M 
$GPGGA,132427.000,3101.4479,N,12126.2850,E,1,00,00028.028,M 
$GPGGA,132428.000,3101.4480,N,12126.2844,E,1,00,00025.971,M 
$GPGGA,132429.000,3101.4481,N,12126.2838,E,1,00,00025.150,M 
$GPGGA,132430.000,3101.4480,N,12126.2824,E,1,00,00026.319,M 
$GPGGA,132431.000,3101.4475,N,12126.2813,E,1,00,00027.734,M 
$GPGGA,132432.000,3101.4472,N,12126.2807,E,1,00,00027.518,M 
$GPGGA,132433.000,3101.4471,N,12126.2801,E,1,00,00025.904,M 
$GPGGA,132434.000,3101.4465,N,12126.2796,E,1,00,00026.624,M 
$GPGGA,132435.000,3101.4455,N,12126.2795,E,1,00,00025.239,M 
$GPGGA,132436.000,3101.4453,N,12126.2780,E,1,00,00024.935,M 
$GPGGA,132437.000,3101.4447,N,12126.2778,E,1,00,00025.760,M 
$GPGGA,132438.000,3101.4449,N,12126.2764,E,1,00,00026.806,M 
$GPGGA,132439.000,3101.4449,N,12126.2752,E,1,00,00026.682,M 
$GPGGA,132440.000,3101.4453,N,12126.2747,E,1,00,00026.437,M 
$GPGGA,132441.000,3101.4449,N,12126.2742,E,1,00,00025.751,M 
$GPGGA,132442.000,3101.4447,N,12126.2729,E,1,00,00025.670,M 
$GPGGA,132443.000,3101.4448,N,12126.2725,E,1,00,00024.297,M 
$GPGGA,132444.000,3101.4449,N,12126.2711,E,1,00,00024.855,M 
$GPGGA,132445.000,3101.4452,N,12126.2706,E,1,00,00024.018,M 
$GPGGA,132446.000,3101.4450,N,12126.2698,E,1,00,00023.005,M 
$GPGGA,132447.000,3101.4448,N,12126.2689,E,1,00,00022.664,M 
$GPGGA,132448.000,3101.4444,N,12126.2677,E,1,00,00023.361,M 
$GPGGA,132449.000,3101.4434,N,12126.2677,E,1,00,00022.568,M 
$GPGGA,132450.000,3101.4437,N,12126.2675,E,1,00,00020.263,M 
$GPGGA,132451.000,3101.4429,N,12126.2672,E,1,00,00019.427,M 
$GPGGA,132452.000,3101.4424,N,12126.2664,E,1,00,00021.113,M 
$GPGGA,132453.000,3101.4422,N,12126.2656,E,1,00,00020.854,M 
$GPGGA,132454.000,3101.4420,N,12126.2645,E,1,00,00022.376,M 
$GPGGA,132455.000,3101.4419,N,12126.2638,E,1,00,00021.406,M 
$GPGGA,132456.000,3101.4421,N,12126.2626,E,1,00,00022.159,M 
$GPGGA,132457.000,3101.4424,N,12126.2615,E,1,00,00021.966,M 
$GPGGA,132458.000,3101.4423,N,12126.2603,E,1,00,00022.197,M 
$GPGGA,132459.000,3101.4420,N,12126.2596,E,1,00,00022.095,M 
$GPGGA,132500.000,3101.4419,N,12126.2580,E,1,00,00021.667,M 
$GPGGA,132501.000,3101.4422,N,12126.2566,E,1,00,00021.970,M 
$GPGGA,132502.000,3101.4420,N,12126.2561,E,1,00,00021.748,M 
$GPGGA,132503.000,3101.4418,N,12126.2555,E,1,00,00021.880,M 
$GPGGA,132504.000,3101.4414,N,12126.2549,E,1,00,00021.697,M 
$GPGGA,132505.000,3101.4411,N,12126.2544,E,1,00,00021.494,M 
$GPGGA,132506.000,3101.4410,N,12126.2539,E,1,00,00022.004,M 
$GPGGA,132507.000,3101.4408,N,12126.2539,E,1,00,00021.846,M 
$GPGGA,132508.000,3101.4403,N,12126.2532,E,1,00,00021.089,M 
$GPGGA,132509.000,3101.4400,N,12126.2527,E,1,00,00020.769,M 
$GPGGA,132510.000,3101.4398,N,12126.2519,E,1,00,00019.818,M 
$GPGGA,132511.000,3101.4395,N,12126.2509,E,1,00,00019.746,M 
$GPGGA,132512.000,3101.4390,N,12126.2499,E,1,00,00019.063,M 
$GPGGA,132513.000,3101.4389,N,12126.2495,E,1,00,00020.160,M 
$GPGGA,132514.000,3101.4382,N,12126.2492,E,1,00,00019.263,M 
$GPGGA,132515.000,3101.4381,N,12126.2479,E,1,00,00020.810,M 
$GPGGA,132516.000,3101.4382,N,12126.2468,E,1,00,00021.954,M 
$GPGGA,132517.000,3101.4381,N,12126.2466,E,1,00,00022.151,M 
$GPGGA,132518.000,3101.4382,N,12126.2461,E,1,00,00021.551,M 
$GPGGA,132519.000,3101.4385,N,12126.2457,E,1,00,00020.483,M 
$GPGGA,132520.000,3101.4380,N,12126.2449,E,1,00,00021.973,M 
$GPGGA,132521.000,3101.4379,N,12126.2443,E,1,00,00022.982,M 
$GPGGA,132522.000,3101.4376,N,12126.2437,E,1,00,00023.168,M 
$GPGGA,132523.000,3101.4374,N,12126.2432,E,1,00,00022.767,M 
$GPGGA,132524.000,3101.4368,N,12126.2427,E,1,00,00022.572,M 
$GPGGA,132525.000,3101.4363,N,12126.2420,E,1,00,00022.219,M 
$GPGGA,132526.000,3101.4360,N,12126.2413,E,1,00,00022.817,M 
$GPGGA,132527.000,3101.4351,N,12126.2408,E,1,00,00021.486,M 
$GPGGA,132528.000,3101.4346,N,12126.2396,E,1,00,00022.125,M 
$GPGGA,132529.000,3101.4341,N,12126.2389,E,1,00,00021.961,M 
$GPGGA,132530.000,3101.4333,N,12126.2378,E,1,00,00022.729,M 
$GPGGA,132531.000,3101.4329,N,12126.2375,E,1,00,00022.705,M 
